[{"id": "eZzz0bu7FnMtvWAS6RL7RQ", "alias": "pizza-di-paolo-sioux-falls", "name": "Pizza di Paolo", "image_url": "https://s3-media4.fl.yelpcdn.com/bphoto/bKlcr9fvREOEdPfU5lBicA/o.jpg", "is_closed": false, "url": "https://www.yelp.com/biz/pizza-di-paolo-sioux-falls?adjust_creative=svPiIA0fP5C9T0luNYv_TQ&utm_campaign=yelp_api_v3&utm_medium=api_v3_business_search&utm_source=svPiIA0fP5C9T0luNYv_TQ", "review_count": 26, "categories": [{"alias": "pizza", "title": "Pizza"}], "rating": 4.5, "coordinates": {"latitude": 43.5236937890844, "longitude": -96.7308586660097}, "transactions": [], "location": {"address1": "2300 S Minnesota Ave", "address2": "", "address3": null, "city": "Sioux Falls", "zip_code": "57105", "country": "US", "state": "SD", "display_address": ["2300 S Minnesota Ave", "Sioux Falls, SD 57105"]}, "phone": "+16052713935", "display_phone": "(605) 271-3935", "distance": 1121.9402293932283}, {"id": "RqzB5GHdyKbMiF5FPLZ8ug", "alias": "pizza-cheeks-sioux-falls", "name": "Pizza Cheeks", "image_url": "https://s3-media3.fl.yelpcdn.com/bphoto/ESRDU8heqTfkEJjMAV2BpQ/o.jpg", "is_closed": false, "url": "https://www.yelp.com/biz/pizza-cheeks-sioux-falls?adjust_creative=svPiIA0fP5C9T0luNYv_TQ&utm_campaign=yelp_api_v3&utm_medium=api_v3_business_search&utm_source=svPiIA0fP5C9T0luNYv_TQ", "review_count": 20, "categories": [{"alias": "pizza", "title": "Pizza"}, {"alias": "italian", "title": "Italian"}], "rating": 4.5, "coordinates": {"latitude": 43.54656, "longitude": -96.72637}, "transactions": [], "location": {"address1": "120 S Phillips Ave", "address2": null, "address3": "", "city": "Sioux Falls", "zip_code": "57104", "country": "US", "state": "SD", "display_address": ["120 S Phillips Ave", "Sioux Falls, SD 57104"]}, "phone": "+16052710974", "display_phone": "(605) 271-0974", "distance": 1688.3541924853469}, {"id": "ANokXQx7626HwIzvAXlYvQ", "alias": "sunny-s-pizzeria-sioux-falls", "name": "Sunny\u2019s Pizzeria", "image_url": "https://s3-media2.fl.yelpcdn.com/bphoto/DufznS1RKNFuaGqWNTFFNA/o.jpg", "is_closed": false, "url": "https://www.yelp.com/biz/sunny-s-pizzeria-sioux-falls?adjust_creative=svPiIA0fP5C9T0luNYv_TQ&utm_campaign=yelp_api_v3&utm_medium=api_v3_business_search&utm_source=svPiIA0fP5C9T0luNYv_TQ", "review_count": 10, "categories": [{"alias": "pizza", "title": "Pizza"}], "rating": 4.5, "coordinates": {"latitude": 43.529316, "longitude": -96.73901}, "transactions": ["delivery"], "location": {"address1": "1801 S Walts Ave", "address2": "", "address3": null, "city": "Sioux Falls", "zip_code": "57105", "country": "US", "state": "SD", "display_address": ["1801 S Walts Ave", "Sioux Falls, SD 57105"]}, "phone": "+16052714770", "display_phone": "(605) 271-4770", "distance": 483.32980631745653}, {"id": "ttNnwqAnfl1eVwzS8MOPAA", "alias": "mackenzie-river-pizza-grill-and-pub-sioux-falls-3", "name": "MacKenzie River Pizza, Grill & Pub", "image_url": "https://s3-media2.fl.yelpcdn.com/bphoto/TK9MhKBimNvHUdtfju3UMA/o.jpg", "is_closed": false, "url": "https://www.yelp.com/biz/mackenzie-river-pizza-grill-and-pub-sioux-falls-3?adjust_creative=svPiIA0fP5C9T0luNYv_TQ&utm_campaign=yelp_api_v3&utm_medium=api_v3_business_search&utm_source=svPiIA0fP5C9T0luNYv_TQ", "review_count": 249, "categories": [{"alias": "pizza", "title": "Pizza"}, {"alias": "tradamerican", "title": "American (Traditional)"}, {"alias": "bars", "title": "Bars"}], "rating": 4.0, "coordinates": {"latitude": 43.54484821914388, "longitude": -96.72808069999999}, "transactions": ["delivery", "pickup"], "price": "$$", "location": {"address1": "236 S Main Ave", "address2": "", "address3": "", "city": "Sioux Falls", "zip_code": "57104", "country": "US", "state": "SD", "display_address": ["236 S Main Ave", "Sioux Falls, SD 57104"]}, "phone": "+16052755566", "display_phone": "(605) 275-5566", "distance": 1456.492717739413}, {"id": "bJ4k4Ytl6Rb34CCMweuUOQ", "alias": "tomacellis-pizza-and-pasta-sioux-falls", "name": "Tomacelli's Pizza & Pasta", "image_url": "https://s3-media3.fl.yelpcdn.com/bphoto/P49luidurOpUvLZK5A_OGA/o.jpg", "is_closed": false, "url": "https://www.yelp.com/biz/tomacellis-pizza-and-pasta-sioux-falls?adjust_creative=svPiIA0fP5C9T0luNYv_TQ&utm_campaign=yelp_api_v3&utm_medium=api_v3_business_search&utm_source=svPiIA0fP5C9T0luNYv_TQ", "review_count": 60, "categories": [{"alias": "pizza", "title": "Pizza"}, {"alias": "italian", "title": "Italian"}], "rating": 3.5, "coordinates": {"latitude": 43.54356, "longitude": -96.75685}, "transactions": ["delivery"], "price": "$", "location": {"address1": "2309 W 12th St", "address2": "", "address3": "", "city": "Sioux Falls", "zip_code": "57104", "country": "US", "state": "SD", "display_address": ["2309 W 12th St", "Sioux Falls, SD 57104"]}, "phone": "+16053358500", "display_phone": "(605) 335-8500", "distance": 2034.1209827156854}, {"id": "zIyZSt1K48WJ8MjVqOJlxw", "alias": "papa-woodys-wood-fired-pizza-sioux-falls", "name": "Papa Woody's Wood Fired Pizza", "image_url": "https://s3-media3.fl.yelpcdn.com/bphoto/S4PeLK_dxIP7mc7tPqAhOg/o.jpg", "is_closed": false, "url": "https://www.yelp.com/biz/papa-woodys-wood-fired-pizza-sioux-falls?adjust_creative=svPiIA0fP5C9T0luNYv_TQ&utm_campaign=yelp_api_v3&utm_medium=api_v3_business_search&utm_source=svPiIA0fP5C9T0luNYv_TQ", "review_count": 20, "categories": [{"alias": "pizza", "title": "Pizza"}, {"alias": "foodtrucks", "title": "Food Trucks"}], "rating": 3.5, "coordinates": {"latitude": 43.55624142040631, "longitude": -96.72718821518825}, "transactions": ["delivery", "pickup"], "price": "$$", "location": {"address1": "421 N Phillips Ave", "address2": "", "address3": null, "city": "Sioux Falls", "zip_code": "57104", "country": "US", "state": "SD", "display_address": ["421 N Phillips Ave", "Sioux Falls, SD 57104"]}, "phone": "+16052710519", "display_phone": "(605) 271-0519", "distance": 2672.256682398403}, {"id": "2pr4-s7NJb-ucT9wrzyVYg", "alias": "marcos-pizza-sioux-falls", "name": "Marco's Pizza", "image_url": "https://s3-media1.fl.yelpcdn.com/bphoto/WPOAKnY4hMPNHOVnokpDgg/o.jpg", "is_closed": false, "url": "https://www.yelp.com/biz/marcos-pizza-sioux-falls?adjust_creative=svPiIA0fP5C9T0luNYv_TQ&utm_campaign=yelp_api_v3&utm_medium=api_v3_business_search&utm_source=svPiIA0fP5C9T0luNYv_TQ", "review_count": 42, "categories": [{"alias": "pizza", "title": "Pizza"}], "rating": 4.0, "coordinates": {"latitude": 43.499904492721825, "longitude": -96.77274533417616}, "transactions": ["delivery", "pickup"], "price": "$$", "location": {"address1": "5007 S Louise Ave", "address2": "", "address3": "", "city": "Sioux Falls", "zip_code": "57108", "country": "US", "state": "SD", "display_address": ["5007 S Louise Ave", "Sioux Falls, SD 57108"]}, "phone": "+16052754949", "display_phone": "(605) 275-4949", "distance": 4731.2448045969895}, {"id": "Zxyi_zixIxHZt0axAccg1A", "alias": "fiero-pizza-sioux-falls", "name": "Fiero Pizza", "image_url": "https://s3-media4.fl.yelpcdn.com/bphoto/5C-fMHLxt36oSV6IHV7HFQ/o.jpg", "is_closed": false, "url": "https://www.yelp.com/biz/fiero-pizza-sioux-falls?adjust_creative=svPiIA0fP5C9T0luNYv_TQ&utm_campaign=yelp_api_v3&utm_medium=api_v3_business_search&utm_source=svPiIA0fP5C9T0luNYv_TQ", "review_count": 28, "categories": [{"alias": "pizza", "title": "Pizza"}], "rating": 4.0, "coordinates": {"latitude": 43.5455622368475, "longitude": -96.7267637783829}, "transactions": ["delivery", "pickup"], "price": "$$", "location": {"address1": "212 S Phillips Ave", "address2": "", "address3": "", "city": "Sioux Falls", "zip_code": "57104", "country": "US", "state": "SD", "display_address": ["212 S Phillips Ave", "Sioux Falls, SD 57104"]}, "phone": "+16053380505", "display_phone": "(605) 338-0505", "distance": 1575.5179650301488}, {"id": "D0FEBaMapxwn7qW4ZQV6yw", "alias": "pizza-shop-sioux-falls", "name": "Pizza Shop", "image_url": "https://s3-media3.fl.yelpcdn.com/bphoto/XUh32N6cRfj43XkRUvTiUw/o.jpg", "is_closed": false, "url": "https://www.yelp.com/biz/pizza-shop-sioux-falls?adjust_creative=svPiIA0fP5C9T0luNYv_TQ&utm_campaign=yelp_api_v3&utm_medium=api_v3_business_search&utm_source=svPiIA0fP5C9T0luNYv_TQ", "review_count": 6, "categories": [{"alias": "pizza", "title": "Pizza"}], "rating": 4.0, "coordinates": {"latitude": 43.51355828876692, "longitude": -96.7748293}, "transactions": [], "location": {"address1": "4013 W 41st St", "address2": "", "address3": null, "city": "Sioux Falls", "zip_code": "57106", "country": "US", "state": "SD", "display_address": ["4013 W 41st St", "Sioux Falls, SD 57106"]}, "phone": "+16054992111", "display_phone": "(605) 499-2111", "distance": 3809.6067962034017}, {"id": "ZdvYVDZdla4OqR48tshaZg", "alias": "roundhouse-brew-pub-sioux-falls", "name": "Roundhouse Brew Pub", "image_url": "https://s3-media4.fl.yelpcdn.com/bphoto/0GohniKoihEPiqktX_V9gw/o.jpg", "is_closed": false, "url": "https://www.yelp.com/biz/roundhouse-brew-pub-sioux-falls?adjust_creative=svPiIA0fP5C9T0luNYv_TQ&utm_campaign=yelp_api_v3&utm_medium=api_v3_business_search&utm_source=svPiIA0fP5C9T0luNYv_TQ", "review_count": 20, "categories": [{"alias": "pizza", "title": "Pizza"}, {"alias": "salad", "title": "Salad"}, {"alias": "burgers", "title": "Burgers"}], "rating": 4.5, "coordinates": {"latitude": 43.488879, "longitude": -96.70525915415872}, "transactions": [], "price": "$$", "location": {"address1": "1515 E 69th St", "address2": "", "address3": null, "city": "Sioux Falls", "zip_code": "57108", "country": "US", "state": "SD", "display_address": ["1515 E 69th St", "Sioux Falls, SD 57108"]}, "phone": "+16052712050", "display_phone": "(605) 271-2050", "distance": 5503.664848758522}, {"id": "AjTuVXhDl2wVXnYMzQI7MQ", "alias": "pizza-man-sioux-falls", "name": "Pizza Man", "image_url": "https://s3-media1.fl.yelpcdn.com/bphoto/ymbKi4h-33uyKegrbUwI9Q/o.jpg", "is_closed": false, "url": "https://www.yelp.com/biz/pizza-man-sioux-falls?adjust_creative=svPiIA0fP5C9T0luNYv_TQ&utm_campaign=yelp_api_v3&utm_medium=api_v3_business_search&utm_source=svPiIA0fP5C9T0luNYv_TQ", "review_count": 31, "categories": [{"alias": "pizza", "title": "Pizza"}, {"alias": "italian", "title": "Italian"}], "rating": 3.5, "coordinates": {"latitude": 43.5397005, "longitude": -96.7910161}, "transactions": ["delivery"], "price": "$$", "location": {"address1": "807 S Marion Rd", "address2": null, "address3": null, "city": "Sioux Falls", "zip_code": "57106", "country": "US", "state": "SD", "display_address": ["807 S Marion Rd", "Sioux Falls, SD 57106"]}, "phone": "+16059776000", "display_phone": "(605) 977-6000", "distance": 4496.238668020145}, {"id": "IRr239PcfeeIpeD-Uho-CA", "alias": "woodgrain-brewing-company-sioux-falls-2", "name": "WoodGrain Brewing Company", "image_url": "https://s3-media4.fl.yelpcdn.com/bphoto/HL4CBHAHV2AsqkR3YNKpwA/o.jpg", "is_closed": false, "url": "https://www.yelp.com/biz/woodgrain-brewing-company-sioux-falls-2?adjust_creative=svPiIA0fP5C9T0luNYv_TQ&utm_campaign=yelp_api_v3&utm_medium=api_v3_business_search&utm_source=svPiIA0fP5C9T0luNYv_TQ", "review_count": 46, "categories": [{"alias": "breweries", "title": "Breweries"}], "rating": 4.5, "coordinates": {"latitude": 43.546962, "longitude": -96.727233}, "transactions": [], "price": "$", "location": {"address1": "101 S Phillips Ave", "address2": "Ste 100", "address3": "", "city": "Sioux Falls", "zip_code": "57104", "country": "US", "state": "SD", "display_address": ["101 S Phillips Ave", "Ste 100", "Sioux Falls, SD 57104"]}, "phone": "+16053105316", "display_phone": "(605) 310-5316", "distance": 1702.6380420147998}, {"id": "9IMGfvln1ZB_gR58OVNE8g", "alias": "red-stone-pizza-company-sioux-falls-2", "name": "Red Stone Pizza Company", "image_url": "https://s3-media3.fl.yelpcdn.com/bphoto/MwwJnMwQb65w7XbEqhmYzw/o.jpg", "is_closed": false, "url": "https://www.yelp.com/biz/red-stone-pizza-company-sioux-falls-2?adjust_creative=svPiIA0fP5C9T0luNYv_TQ&utm_campaign=yelp_api_v3&utm_medium=api_v3_business_search&utm_source=svPiIA0fP5C9T0luNYv_TQ", "review_count": 1, "categories": [{"alias": "pizza", "title": "Pizza"}, {"alias": "beer_and_wine", "title": "Beer, Wine & Spirits"}], "rating": 4.0, "coordinates": {"latitude": 43.58020955109188, "longitude": -96.73203087319102}, "transactions": [], "location": {"address1": "2801 N Jaycee Ln", "address2": "", "address3": null, "city": "Sioux Falls", "zip_code": "57104", "country": "US", "state": "SD", "display_address": ["2801 N Jaycee Ln", "Sioux Falls, SD 57104"]}, "phone": "+16053360762", "display_phone": "(605) 336-0762", "distance": 5251.162704007862}, {"id": "Nf5lcDomfKf4Z6q2RCdabA", "alias": "look-s-marketplace-sioux-falls", "name": "Look\u2019s Marketplace", "image_url": "https://s3-media2.fl.yelpcdn.com/bphoto/XX9Px513Wo_K-ux3Wqi3xw/o.jpg", "is_closed": false, "url": "https://www.yelp.com/biz/look-s-marketplace-sioux-falls?adjust_creative=svPiIA0fP5C9T0luNYv_TQ&utm_campaign=yelp_api_v3&utm_medium=api_v3_business_search&utm_source=svPiIA0fP5C9T0luNYv_TQ", "review_count": 60, "categories": [{"alias": "grocery", "title": "Grocery"}, {"alias": "beer_and_wine", "title": "Beer, Wine & Spirits"}, {"alias": "delis", "title": "Delis"}], "rating": 4.5, "coordinates": {"latitude": 43.490741168075644, "longitude": -96.72222702527566}, "transactions": [], "price": "$$", "location": {"address1": "500 E 69th St", "address2": "", "address3": null, "city": "Sioux Falls", "zip_code": "57032", "country": "US", "state": "SD", "display_address": ["500 E 69th St", "Sioux Falls, SD 57032"]}, "phone": "+16053363104", "display_phone": "(605) 336-3104", "distance": 4836.094511543207}, {"id": "Xie54nccYKO0AKzO27FX8g", "alias": "charlies-pizza-sioux-falls", "name": "Charlies Pizza", "image_url": "", "is_closed": false, "url": "https://www.yelp.com/biz/charlies-pizza-sioux-falls?adjust_creative=svPiIA0fP5C9T0luNYv_TQ&utm_campaign=yelp_api_v3&utm_medium=api_v3_business_search&utm_source=svPiIA0fP5C9T0luNYv_TQ", "review_count": 1, "categories": [{"alias": "pizza", "title": "Pizza"}], "rating": 4.0, "coordinates": {"latitude": 43.48760408215976, "longitude": -96.74684839999999}, "transactions": [], "location": {"address1": "6213 S Old Village Pl", "address2": "", "address3": null, "city": "Sioux Falls", "zip_code": "57108", "country": "US", "state": "SD", "display_address": ["6213 S Old Village Pl", "Sioux Falls, SD 57108"]}, "phone": "+16052752212", "display_phone": "(605) 275-2212", "distance": 5131.035510194754}, {"id": "Xa0F6ocYKt9vqhsseppyUA", "alias": "roots-of-brasil-sioux-falls", "name": "Roots of Brasil", "image_url": "https://s3-media1.fl.yelpcdn.com/bphoto/N2YJD6fXrHxd-khp1mBPXw/o.jpg", "is_closed": false, "url": "https://www.yelp.com/biz/roots-of-brasil-sioux-falls?adjust_creative=svPiIA0fP5C9T0luNYv_TQ&utm_campaign=yelp_api_v3&utm_medium=api_v3_business_search&utm_source=svPiIA0fP5C9T0luNYv_TQ", "review_count": 2, "categories": [{"alias": "brazilian", "title": "Brazilian"}, {"alias": "salad", "title": "Salad"}, {"alias": "pizza", "title": "Pizza"}], "rating": 5.0, "coordinates": {"latitude": 43.54884, "longitude": -96.7201}, "transactions": [], "location": {"address1": "201 N Weber Ave", "address2": "", "address3": null, "city": "Sioux Falls", "zip_code": "57103", "country": "US", "state": "SD", "display_address": ["201 N Weber Ave", "Sioux Falls, SD 57103"]}, "phone": "+16052711498", "display_phone": "(605) 271-1498", "distance": 2173.2548481569625}, {"id": "FVQXuuvK1bEdSa7spcIAqQ", "alias": "monks-ale-house-sioux-falls-3", "name": "Monk's Ale House", "image_url": "https://s3-media3.fl.yelpcdn.com/bphoto/NT8YUlfEcELu5ABLz4nBVQ/o.jpg", "is_closed": false, "url": "https://www.yelp.com/biz/monks-ale-house-sioux-falls-3?adjust_creative=svPiIA0fP5C9T0luNYv_TQ&utm_campaign=yelp_api_v3&utm_medium=api_v3_business_search&utm_source=svPiIA0fP5C9T0luNYv_TQ", "review_count": 153, "categories": [{"alias": "breweries", "title": "Breweries"}, {"alias": "newamerican", "title": "American (New)"}, {"alias": "beerbar", "title": "Beer Bar"}], "rating": 4.0, "coordinates": {"latitude": 43.5487672690635, "longitude": -96.721736108385}, "transactions": [], "price": "$$", "location": {"address1": "420 E 8th St", "address2": "", "address3": "", "city": "Sioux Falls", "zip_code": "57103", "country": "US", "state": "SD", "display_address": ["420 E 8th St", "Sioux Falls, SD 57103"]}, "phone": "+16053382328", "display_phone": "(605) 338-2328", "distance": 2089.563744491574}, {"id": "f9cZUS8KtN7C_MeO0QmH_Q", "alias": "boss-pizza-and-chicken-sioux-falls-2", "name": "Boss' Pizza & Chicken", "image_url": "https://s3-media3.fl.yelpcdn.com/bphoto/zNXfgliLkDZ64l3QiEmzTw/o.jpg", "is_closed": false, "url": "https://www.yelp.com/biz/boss-pizza-and-chicken-sioux-falls-2?adjust_creative=svPiIA0fP5C9T0luNYv_TQ&utm_campaign=yelp_api_v3&utm_medium=api_v3_business_search&utm_source=svPiIA0fP5C9T0luNYv_TQ", "review_count": 72, "categories": [{"alias": "pizza", "title": "Pizza"}, {"alias": "chickenshop", "title": "Chicken Shop"}], "rating": 2.5, "coordinates": {"latitude": 43.52521430671147, "longitude": -96.73177435462766}, "transactions": ["delivery", "pickup"], "price": "$$", "location": {"address1": "2111 S Minnesota Ave", "address2": null, "address3": null, "city": "Sioux Falls", "zip_code": "57105", "country": "US", "state": "SD", "display_address": ["2111 S Minnesota Ave", "Sioux Falls, SD 57105"]}, "phone": "+16052712677", "display_phone": "(605) 271-2677", "distance": 937.577516646416}, {"id": "_P1tbuS-ZiR26bZHF_SG8Q", "alias": "lupulin-brewing-sioux-falls-3", "name": "Lupulin Brewing", "image_url": "https://s3-media2.fl.yelpcdn.com/bphoto/J1x7xFbzeF8Wms6v03n5QQ/o.jpg", "is_closed": false, "url": "https://www.yelp.com/biz/lupulin-brewing-sioux-falls-3?adjust_creative=svPiIA0fP5C9T0luNYv_TQ&utm_campaign=yelp_api_v3&utm_medium=api_v3_business_search&utm_source=svPiIA0fP5C9T0luNYv_TQ", "review_count": 27, "categories": [{"alias": "breweries", "title": "Breweries"}, {"alias": "sportsbars", "title": "Sports Bars"}], "rating": 4.5, "coordinates": {"latitude": 43.524492, "longitude": -96.777195}, "transactions": [], "price": "$$", "location": {"address1": "2425 S Shirley Ave", "address2": "Ste 112", "address3": "", "city": "Sioux Falls", "zip_code": "57106", "country": "US", "state": "SD", "display_address": ["2425 S Shirley Ave", "Ste 112", "Sioux Falls, SD 57106"]}, "phone": "+16052755544", "display_phone": "(605) 275-5544", "distance": 3456.0209166304544}, {"id": "at8oIFIMCiRlqxXiTNLhjw", "alias": "dareos-pizza-casino-sioux-falls-2", "name": "Dareo's Pizza Casino", "image_url": "https://s3-media2.fl.yelpcdn.com/bphoto/VkwZW9PqOTIQBFNDhVqfSw/o.jpg", "is_closed": false, "url": "https://www.yelp.com/biz/dareos-pizza-casino-sioux-falls-2?adjust_creative=svPiIA0fP5C9T0luNYv_TQ&utm_campaign=yelp_api_v3&utm_medium=api_v3_business_search&utm_source=svPiIA0fP5C9T0luNYv_TQ", "review_count": 6, "categories": [{"alias": "pizza", "title": "Pizza"}], "rating": 3.5, "coordinates": {"latitude": 43.5180201, "longitude": -96.7311151}, "transactions": ["delivery", "pickup"], "location": {"address1": "2920 S Minnesota Ave", "address2": "", "address3": "", "city": "Sioux Falls", "zip_code": "57105", "country": "US", "state": "SD", "display_address": ["2920 S Minnesota Ave", "Sioux Falls, SD 57105"]}, "phone": "+16053353758", "display_phone": "(605) 335-3758", "distance": 1753.9204113867024}, {"id": "HdiHgu_bV0HwphyOWKXDUg", "alias": "godfathers-pizza-sioux-falls-2", "name": "Godfather's Pizza", "image_url": "https://s3-media3.fl.yelpcdn.com/bphoto/NRP9PU8kZXNth3T0EPJqKg/o.jpg", "is_closed": false, "url": "https://www.yelp.com/biz/godfathers-pizza-sioux-falls-2?adjust_creative=svPiIA0fP5C9T0luNYv_TQ&utm_campaign=yelp_api_v3&utm_medium=api_v3_business_search&utm_source=svPiIA0fP5C9T0luNYv_TQ", "review_count": 28, "categories": [{"alias": "pizza", "title": "Pizza"}, {"alias": "italian", "title": "Italian"}], "rating": 1.5, "coordinates": {"latitude": 43.5143241882324, "longitude": -96.7886581420898}, "transactions": ["delivery"], "price": "$$", "location": {"address1": "5107 W 41st St", "address2": "Ste S", "address3": "", "city": "Sioux Falls", "zip_code": "57106", "country": "US", "state": "SD", "display_address": ["5107 W 41st St", "Ste S", "Sioux Falls, SD 57106"]}, "phone": "+16053618029", "display_phone": "(605) 361-8029", "distance": 4738.929701934634}, {"id": "x1FZTkpUfdhB1hn3dBKBtA", "alias": "the-barrel-house-sioux-falls", "name": "The Barrel House", "image_url": "https://s3-media3.fl.yelpcdn.com/bphoto/Ohamr8nogPRHqUyBP2akKQ/o.jpg", "is_closed": false, "url": "https://www.yelp.com/biz/the-barrel-house-sioux-falls?adjust_creative=svPiIA0fP5C9T0luNYv_TQ&utm_campaign=yelp_api_v3&utm_medium=api_v3_business_search&utm_source=svPiIA0fP5C9T0luNYv_TQ", "review_count": 98, "categories": [{"alias": "pizza", "title": "Pizza"}, {"alias": "whiskeybars", "title": "Whiskey Bars"}, {"alias": "cocktailbars", "title": "Cocktail Bars"}], "rating": 4.0, "coordinates": {"latitude": 43.502385773833, "longitude": -96.6673476029615}, "transactions": ["delivery"], "price": "$$", "location": {"address1": "4701 E 54th St", "address2": null, "address3": null, "city": "Sioux Falls", "zip_code": "57110", "country": "US", "state": "SD", "display_address": ["4701 E 54th St", "Sioux Falls, SD 57110"]}, "phone": "+16052717553", "display_phone": "(605) 271-7553", "distance": 6502.33037509666}, {"id": "J-Cmx1KPNcwKreHWv5kPpQ", "alias": "bbs-pub-n-grill-sioux-falls", "name": "BB's Pub N Grill", "image_url": "https://s3-media3.fl.yelpcdn.com/bphoto/Vz-42eTqqUm5gRJ-5lLN7w/o.jpg", "is_closed": false, "url": "https://www.yelp.com/biz/bbs-pub-n-grill-sioux-falls?adjust_creative=svPiIA0fP5C9T0luNYv_TQ&utm_campaign=yelp_api_v3&utm_medium=api_v3_business_search&utm_source=svPiIA0fP5C9T0luNYv_TQ", "review_count": 32, "categories": [{"alias": "bars", "title": "Bars"}, {"alias": "burgers", "title": "Burgers"}, {"alias": "pizza", "title": "Pizza"}], "rating": 4.0, "coordinates": {"latitude": 43.508283, "longitude": -96.768033}, "transactions": ["pickup", "delivery"], "price": "$$", "location": {"address1": "3400 W 49th St", "address2": "", "address3": "", "city": "Sioux Falls", "zip_code": "57106", "country": "US", "state": "SD", "display_address": ["3400 W 49th St", "Sioux Falls, SD 57106"]}, "phone": "+16053620947", "display_phone": "(605) 362-0947", "distance": 3777.8222621960413}, {"id": "SeQhfw-fGZXAqKQokrjAMQ", "alias": "the-18th-amendment-sioux-falls", "name": "The 18th Amendment", "image_url": "https://s3-media3.fl.yelpcdn.com/bphoto/Sb-rkf9JIqUJUzI8WvK8UA/o.jpg", "is_closed": false, "url": "https://www.yelp.com/biz/the-18th-amendment-sioux-falls?adjust_creative=svPiIA0fP5C9T0luNYv_TQ&utm_campaign=yelp_api_v3&utm_medium=api_v3_business_search&utm_source=svPiIA0fP5C9T0luNYv_TQ", "review_count": 43, "categories": [{"alias": "pizza", "title": "Pizza"}, {"alias": "tradamerican", "title": "American (Traditional)"}, {"alias": "sportsbars", "title": "Sports Bars"}], "rating": 3.0, "coordinates": {"latitude": 43.51438, "longitude": -96.74173}, "transactions": ["delivery"], "price": "$$", "location": {"address1": "1301 W 41st", "address2": "", "address3": "", "city": "Sioux Falls", "zip_code": "57105", "country": "US", "state": "SD", "display_address": ["1301 W 41st", "Sioux Falls, SD 57105"]}, "phone": "+16052711409", "display_phone": "(605) 271-1409", "distance": 2141.2723491320653}, {"id": "zMnQKCpLHFx0UUXnFyf4dQ", "alias": "boss-pizza-and-chicken-sioux-falls", "name": "Boss' Pizza & Chicken", "image_url": "https://s3-media1.fl.yelpcdn.com/bphoto/-qmE4JgOapUNehz8XSFCNQ/o.jpg", "is_closed": false, "url": "https://www.yelp.com/biz/boss-pizza-and-chicken-sioux-falls?adjust_creative=svPiIA0fP5C9T0luNYv_TQ&utm_campaign=yelp_api_v3&utm_medium=api_v3_business_search&utm_source=svPiIA0fP5C9T0luNYv_TQ", "review_count": 41, "categories": [{"alias": "pizza", "title": "Pizza"}, {"alias": "chickenshop", "title": "Chicken Shop"}], "rating": 2.5, "coordinates": {"latitude": 43.52978345, "longitude": -96.79227924}, "transactions": ["pickup", "delivery"], "price": "$$", "location": {"address1": "5330 W 26th St", "address2": null, "address3": null, "city": "Sioux Falls", "zip_code": "57106", "country": "US", "state": "SD", "display_address": ["5330 W 26th St", "Sioux Falls, SD 57106"]}, "phone": "+16052719378", "display_phone": "(605) 271-9378", "distance": 4552.3197950335725}, {"id": "RIGUtVcaPBCL_8TRQI0W2A", "alias": "blarney-stone-pub-sioux-falls-sioux-falls-3", "name": "Blarney Stone Pub- Sioux Falls", "image_url": "https://s3-media2.fl.yelpcdn.com/bphoto/VYAVydp4tuIwg_DrWGQygA/o.jpg", "is_closed": false, "url": "https://www.yelp.com/biz/blarney-stone-pub-sioux-falls-sioux-falls-3?adjust_creative=svPiIA0fP5C9T0luNYv_TQ&utm_campaign=yelp_api_v3&utm_medium=api_v3_business_search&utm_source=svPiIA0fP5C9T0luNYv_TQ", "review_count": 172, "categories": [{"alias": "irish", "title": "Irish"}, {"alias": "irish_pubs", "title": "Irish Pub"}, {"alias": "burgers", "title": "Burgers"}], "rating": 4.5, "coordinates": {"latitude": 43.5436371, "longitude": -96.72695464250678}, "transactions": ["pickup"], "price": "$$", "location": {"address1": "333 S Phillips Ave", "address2": "", "address3": null, "city": "Sioux Falls", "zip_code": "57104", "country": "US", "state": "SD", "display_address": ["333 S Phillips Ave", "Sioux Falls, SD 57104"]}, "phone": "+16052740103", "display_phone": "(605) 274-0103", "distance": 1382.3303672774148}, {"id": "J4fJavDohGTCHgLJlh7XyQ", "alias": "dareos-pizza-casino-sioux-falls", "name": "Dareo's Pizza Casino", "image_url": "", "is_closed": false, "url": "https://www.yelp.com/biz/dareos-pizza-casino-sioux-falls?adjust_creative=svPiIA0fP5C9T0luNYv_TQ&utm_campaign=yelp_api_v3&utm_medium=api_v3_business_search&utm_source=svPiIA0fP5C9T0luNYv_TQ", "review_count": 1, "categories": [{"alias": "pizza", "title": "Pizza"}], "rating": 5.0, "coordinates": {"latitude": 43.52873, "longitude": -96.68597}, "transactions": ["delivery"], "location": {"address1": "3301 E 26th St", "address2": "Ste 123", "address3": "", "city": "Sioux Falls", "zip_code": "57103", "country": "US", "state": "SD", "display_address": ["3301 E 26th St", "Ste 123", "Sioux Falls, SD 57103"]}, "phone": "+16053353442", "display_phone": "(605) 335-3442", "distance": 4061.4810056508377}, {"id": "YFsv3gwBuvUx6BTqTOdPLQ", "alias": "pizza-ranch-sioux-falls", "name": "Pizza Ranch", "image_url": "https://s3-media2.fl.yelpcdn.com/bphoto/4v6Fp_mrCftoF0PdaM3oHA/o.jpg", "is_closed": false, "url": "https://www.yelp.com/biz/pizza-ranch-sioux-falls?adjust_creative=svPiIA0fP5C9T0luNYv_TQ&utm_campaign=yelp_api_v3&utm_medium=api_v3_business_search&utm_source=svPiIA0fP5C9T0luNYv_TQ", "review_count": 18, "categories": [{"alias": "pizza", "title": "Pizza"}], "rating": 3.0, "coordinates": {"latitude": 43.5147033, "longitude": -96.7589477}, "transactions": ["pickup", "delivery"], "price": "$$", "location": {"address1": "2717 W 41st St", "address2": null, "address3": null, "city": "Sioux Falls", "zip_code": "57105", "country": "US", "state": "SD", "display_address": ["2717 W 41st St", "Sioux Falls, SD 57105"]}, "phone": "+16052718646", "display_phone": "(605) 271-8646", "distance": 2802.5646921664825}, {"id": "tDJE6d_KIvthm1fQmfvcmw", "alias": "dominos-pizza-sioux-falls-7", "name": "Domino's Pizza", "image_url": "https://s3-media4.fl.yelpcdn.com/bphoto/v9hIEQVen-n3j4e3O9-Qzg/o.jpg", "is_closed": false, "url": "https://www.yelp.com/biz/dominos-pizza-sioux-falls-7?adjust_creative=svPiIA0fP5C9T0luNYv_TQ&utm_campaign=yelp_api_v3&utm_medium=api_v3_business_search&utm_source=svPiIA0fP5C9T0luNYv_TQ", "review_count": 21, "categories": [{"alias": "pizza", "title": "Pizza"}, {"alias": "chicken_wings", "title": "Chicken Wings"}, {"alias": "sandwiches", "title": "Sandwiches"}], "rating": 2.0, "coordinates": {"latitude": 43.5256386, "longitude": -96.7760086}, "transactions": [], "price": "$", "location": {"address1": "2401 S Shirley Ave", "address2": "", "address3": "", "city": "Sioux Falls", "zip_code": "57106", "country": "US", "state": "SD", "display_address": ["2401 S Shirley Ave", "Sioux Falls, SD 57106"]}, "phone": "+16053612544", "display_phone": "(605) 361-2544", "distance": 3331.77298737175}, {"id": "Qq4foODH_-mwC0z-C2JO7A", "alias": "boss-pizzeria-and-sports-bar-sioux-falls-2", "name": "Boss' Pizzeria and Sports Bar", "image_url": "https://s3-media1.fl.yelpcdn.com/bphoto/UcWDyz0JP3NTGpsLgf0c0A/o.jpg", "is_closed": false, "url": "https://www.yelp.com/biz/boss-pizzeria-and-sports-bar-sioux-falls-2?adjust_creative=svPiIA0fP5C9T0luNYv_TQ&utm_campaign=yelp_api_v3&utm_medium=api_v3_business_search&utm_source=svPiIA0fP5C9T0luNYv_TQ", "review_count": 16, "categories": [{"alias": "chickenshop", "title": "Chicken Shop"}, {"alias": "sportsbars", "title": "Sports Bars"}, {"alias": "pizza", "title": "Pizza"}], "rating": 2.5, "coordinates": {"latitude": 43.5624433, "longitude": -96.74563987}, "transactions": ["delivery"], "location": {"address1": "1301 W Russell St", "address2": null, "address3": null, "city": "Sioux Falls", "zip_code": "57104", "country": "US", "state": "SD", "display_address": ["1301 W Russell St", "Sioux Falls, SD 57104"]}, "phone": "+16052752716", "display_phone": "(605) 275-2716", "distance": 3357.2133358606734}, {"id": "D0j64WknmDGtmDhL3dw3WQ", "alias": "daily-clean-food-and-drink-sioux-falls", "name": "Daily Clean Food and Drink", "image_url": "https://s3-media2.fl.yelpcdn.com/bphoto/nXjVCaK9eEAboLfT56qMdQ/o.jpg", "is_closed": false, "url": "https://www.yelp.com/biz/daily-clean-food-and-drink-sioux-falls?adjust_creative=svPiIA0fP5C9T0luNYv_TQ&utm_campaign=yelp_api_v3&utm_medium=api_v3_business_search&utm_source=svPiIA0fP5C9T0luNYv_TQ", "review_count": 37, "categories": [{"alias": "vegan", "title": "Vegan"}, {"alias": "gluten_free", "title": "Gluten-Free"}], "rating": 4.5, "coordinates": {"latitude": 43.4882155099775, "longitude": -96.7480375617743}, "transactions": ["delivery"], "price": "$$", "location": {"address1": "6215 S Western Ave", "address2": "", "address3": null, "city": "Sioux Falls", "zip_code": "57104", "country": "US", "state": "SD", "display_address": ["6215 S Western Ave", "Sioux Falls, SD 57104"]}, "phone": "+16052711736", "display_phone": "(605) 271-1736", "distance": 5081.514020202673}, {"id": "P49VrCD7a-N6iW8e7_l1Jg", "alias": "willows-restaurant-sioux-falls", "name": "Willows Restaurant", "image_url": "https://s3-media1.fl.yelpcdn.com/bphoto/2cEv0RW8fRXfAm3WWk8fVg/o.jpg", "is_closed": false, "url": "https://www.yelp.com/biz/willows-restaurant-sioux-falls?adjust_creative=svPiIA0fP5C9T0luNYv_TQ&utm_campaign=yelp_api_v3&utm_medium=api_v3_business_search&utm_source=svPiIA0fP5C9T0luNYv_TQ", "review_count": 11, "categories": [{"alias": "tradamerican", "title": "American (Traditional)"}, {"alias": "sandwiches", "title": "Sandwiches"}, {"alias": "pizza", "title": "Pizza"}], "rating": 4.5, "coordinates": {"latitude": 43.53543, "longitude": -96.624055}, "transactions": ["pickup", "delivery"], "location": {"address1": "8000 E Arrowhead Pkwy", "address2": null, "address3": "", "city": "Sioux Falls", "zip_code": "57110", "country": "US", "state": "SD", "display_address": ["8000 E Arrowhead Pkwy", "Sioux Falls, SD 57110"]}, "phone": "+16053355900", "display_phone": "(605) 335-5900", "distance": 9027.318187359879}, {"id": "i2ey2gYZEnkwnr459hqiew", "alias": "tommyjacks-pub-sioux-falls", "name": "TommyJack's Pub", "image_url": "https://s3-media3.fl.yelpcdn.com/bphoto/Cg-JEVg00010HAoD_5aEdw/o.jpg", "is_closed": false, "url": "https://www.yelp.com/biz/tommyjacks-pub-sioux-falls?adjust_creative=svPiIA0fP5C9T0luNYv_TQ&utm_campaign=yelp_api_v3&utm_medium=api_v3_business_search&utm_source=svPiIA0fP5C9T0luNYv_TQ", "review_count": 21, "categories": [{"alias": "pubs", "title": "Pubs"}, {"alias": "tradamerican", "title": "American (Traditional)"}], "rating": 4.0, "coordinates": {"latitude": 43.543655, "longitude": -96.724361}, "transactions": ["delivery"], "price": "$", "location": {"address1": "214 E 12th St", "address2": null, "address3": null, "city": "Sioux Falls", "zip_code": "57104", "country": "US", "state": "SD", "display_address": ["214 E 12th St", "Sioux Falls, SD 57104"]}, "phone": "+16053679706", "display_phone": "(605) 367-9706", "distance": 1504.6046435822884}, {"id": "zjdnOvKbO2tZV9nm0kW6Wg", "alias": "camilles-sidewalk-cafe-sioux-falls", "name": "Camille's Sidewalk Cafe", "image_url": "https://s3-media1.fl.yelpcdn.com/bphoto/DhKh8SrexkosgdTqU_rHYw/o.jpg", "is_closed": false, "url": "https://www.yelp.com/biz/camilles-sidewalk-cafe-sioux-falls?adjust_creative=svPiIA0fP5C9T0luNYv_TQ&utm_campaign=yelp_api_v3&utm_medium=api_v3_business_search&utm_source=svPiIA0fP5C9T0luNYv_TQ", "review_count": 37, "categories": [{"alias": "breakfast_brunch", "title": "Breakfast & Brunch"}, {"alias": "pizza", "title": "Pizza"}, {"alias": "sandwiches", "title": "Sandwiches"}], "rating": 4.0, "coordinates": {"latitude": 43.51537, "longitude": -96.74077}, "transactions": ["delivery"], "price": "$", "location": {"address1": "1216 W 41st St", "address2": null, "address3": null, "city": "Sioux Falls", "zip_code": "57105", "country": "US", "state": "SD", "display_address": ["1216 W 41st St", "Sioux Falls, SD 57105"]}, "phone": "+16053339727", "display_phone": "(605) 333-9727", "distance": 1987.378900455999}, {"id": "Mazw5G_Wl0ZYf6mtfe6Epg", "alias": "caseys-sioux-falls-7", "name": "Casey's", "image_url": "https://s3-media4.fl.yelpcdn.com/bphoto/CI5xIYOKACGRVaEpewBLlQ/o.jpg", "is_closed": false, "url": "https://www.yelp.com/biz/caseys-sioux-falls-7?adjust_creative=svPiIA0fP5C9T0luNYv_TQ&utm_campaign=yelp_api_v3&utm_medium=api_v3_business_search&utm_source=svPiIA0fP5C9T0luNYv_TQ", "review_count": 2, "categories": [{"alias": "pizza", "title": "Pizza"}, {"alias": "servicestations", "title": "Gas Stations"}, {"alias": "convenience", "title": "Convenience Stores"}], "rating": 4.5, "coordinates": {"latitude": 43.55382292778425, "longitude": -96.75198908391339}, "transactions": ["delivery"], "location": {"address1": "1705 W Burnside St", "address2": "", "address3": "", "city": "Sioux Falls", "zip_code": "57104", "country": "US", "state": "SD", "display_address": ["1705 W Burnside St", "Sioux Falls, SD 57104"]}, "phone": "+16053327762", "display_phone": "(605) 332-7762", "distance": 2643.1865501989582}, {"id": "-goO-_BMDLI-9RexAGxzSw", "alias": "alibi-bar-and-grill-sioux-falls", "name": "Alibi Bar & Grill", "image_url": "https://s3-media3.fl.yelpcdn.com/bphoto/XDaV9z7tqAnGcWW2pkyCyA/o.jpg", "is_closed": false, "url": "https://www.yelp.com/biz/alibi-bar-and-grill-sioux-falls?adjust_creative=svPiIA0fP5C9T0luNYv_TQ&utm_campaign=yelp_api_v3&utm_medium=api_v3_business_search&utm_source=svPiIA0fP5C9T0luNYv_TQ", "review_count": 4, "categories": [{"alias": "bars", "title": "Bars"}, {"alias": "pizza", "title": "Pizza"}, {"alias": "sandwiches", "title": "Sandwiches"}], "rating": 5.0, "coordinates": {"latitude": 43.535873, "longitude": -96.630772}, "transactions": ["delivery"], "location": {"address1": "7605 E Sd Hwy 42", "address2": "", "address3": "", "city": "Sioux Falls", "zip_code": "57110", "country": "US", "state": "SD", "display_address": ["7605 E Sd Hwy 42", "Sioux Falls, SD 57110"]}, "phone": "+16053354390", "display_phone": "(605) 335-4390", "distance": 8487.723555128525}, {"id": "LxhszvCqLrphCV9R5-KqEQ", "alias": "johnny-carinos-sioux-falls", "name": "Johnny Carino's", "image_url": "https://s3-media2.fl.yelpcdn.com/bphoto/EWXg9FuTL6Vli2wx056-AA/o.jpg", "is_closed": false, "url": "https://www.yelp.com/biz/johnny-carinos-sioux-falls?adjust_creative=svPiIA0fP5C9T0luNYv_TQ&utm_campaign=yelp_api_v3&utm_medium=api_v3_business_search&utm_source=svPiIA0fP5C9T0luNYv_TQ", "review_count": 119, "categories": [{"alias": "italian", "title": "Italian"}], "rating": 3.5, "coordinates": {"latitude": 43.52637, "longitude": -96.77471}, "transactions": ["pickup", "delivery"], "price": "$$", "location": {"address1": "2310 S Louise Ave", "address2": "", "address3": "", "city": "Sioux Falls", "zip_code": "57106", "country": "US", "state": "SD", "display_address": ["2310 S Louise Ave", "Sioux Falls, SD 57106"]}, "phone": "+16053617222", "display_phone": "(605) 361-7222", "distance": 3180.6338277002083}, {"id": "XyEVJgSN1g3ois_imDVkDA", "alias": "toppers-pizza-sioux-falls", "name": "Toppers Pizza", "image_url": "https://s3-media4.fl.yelpcdn.com/bphoto/B-uJBqpsUpOxZ5309XzKcg/o.jpg", "is_closed": false, "url": "https://www.yelp.com/biz/toppers-pizza-sioux-falls?adjust_creative=svPiIA0fP5C9T0luNYv_TQ&utm_campaign=yelp_api_v3&utm_medium=api_v3_business_search&utm_source=svPiIA0fP5C9T0luNYv_TQ", "review_count": 5, "categories": [{"alias": "pizza", "title": "Pizza"}], "rating": 3.0, "coordinates": {"latitude": 43.53805778, "longitude": -96.7318551}, "transactions": ["pickup", "delivery"], "location": {"address1": "817 S Minnesota Ave", "address2": "", "address3": null, "city": "Sioux Falls", "zip_code": "57104", "country": "US", "state": "SD", "display_address": ["817 S Minnesota Ave", "Sioux Falls, SD 57104"]}, "phone": "+16052758677", "display_phone": "(605) 275-8677", "distance": 646.9783581644936}, {"id": "xniPnqfQ2tIBNhZ5CSAziw", "alias": "dominos-pizza-sioux-falls-3", "name": "Domino's Pizza", "image_url": "", "is_closed": false, "url": "https://www.yelp.com/biz/dominos-pizza-sioux-falls-3?adjust_creative=svPiIA0fP5C9T0luNYv_TQ&utm_campaign=yelp_api_v3&utm_medium=api_v3_business_search&utm_source=svPiIA0fP5C9T0luNYv_TQ", "review_count": 5, "categories": [{"alias": "pizza", "title": "Pizza"}, {"alias": "chicken_wings", "title": "Chicken Wings"}, {"alias": "sandwiches", "title": "Sandwiches"}], "rating": 1.0, "coordinates": {"latitude": 43.53527, "longitude": -96.73089}, "transactions": [], "price": "$", "location": {"address1": "1108 S Minnesota Ave", "address2": "", "address3": "", "city": "Sioux Falls", "zip_code": "57105", "country": "US", "state": "SD", "display_address": ["1108 S Minnesota Ave", "Sioux Falls, SD 57105"]}, "phone": "+16053312121", "display_phone": "(605) 331-2121", "distance": 474.3121515183689}, {"id": "vEdRXt2KhnldV4BUWr2LJA", "alias": "papa-johns-pizza-sioux-falls", "name": "Papa Johns Pizza", "image_url": "https://s3-media2.fl.yelpcdn.com/bphoto/CFuYB0T9-yNSHj8WYeWMsg/o.jpg", "is_closed": false, "url": "https://www.yelp.com/biz/papa-johns-pizza-sioux-falls?adjust_creative=svPiIA0fP5C9T0luNYv_TQ&utm_campaign=yelp_api_v3&utm_medium=api_v3_business_search&utm_source=svPiIA0fP5C9T0luNYv_TQ", "review_count": 4, "categories": [{"alias": "pizza", "title": "Pizza"}, {"alias": "chicken_wings", "title": "Chicken Wings"}, {"alias": "hotdogs", "title": "Fast Food"}], "rating": 2.5, "coordinates": {"latitude": 43.53930512333755, "longitude": -96.73183631363179}, "transactions": ["pickup", "delivery"], "price": "$", "location": {"address1": "711 S Minnesota Ave", "address2": "", "address3": "", "city": "Sioux Falls", "zip_code": "57104", "country": "US", "state": "SD", "display_address": ["711 S Minnesota Ave", "Sioux Falls, SD 57104"]}, "phone": "+16053357575", "display_phone": "(605) 335-7575", "distance": 769.8146529919009}, {"id": "UbnoBPz0rlhShagFzncN3g", "alias": "fazolis-sioux-falls", "name": "Fazoli's", "image_url": "https://s3-media2.fl.yelpcdn.com/bphoto/Jehj27aKYImt3HJY7vrUdg/o.jpg", "is_closed": false, "url": "https://www.yelp.com/biz/fazolis-sioux-falls?adjust_creative=svPiIA0fP5C9T0luNYv_TQ&utm_campaign=yelp_api_v3&utm_medium=api_v3_business_search&utm_source=svPiIA0fP5C9T0luNYv_TQ", "review_count": 21, "categories": [{"alias": "italian", "title": "Italian"}, {"alias": "hotdogs", "title": "Fast Food"}, {"alias": "pizza", "title": "Pizza"}], "rating": 3.5, "coordinates": {"latitude": 43.5133529, "longitude": -96.777717477353}, "transactions": ["delivery", "pickup"], "price": "$", "location": {"address1": "4224 W Empire Pl", "address2": "", "address3": null, "city": "Sioux Falls", "zip_code": "57106", "country": "US", "state": "SD", "display_address": ["4224 W Empire Pl", "Sioux Falls, SD 57106"]}, "phone": "+16056818160", "display_phone": "(605) 681-8160", "distance": 4015.6356372982186}, {"id": "k9cSsB7r4dvbAGYmRiN1LQ", "alias": "blue-rock-bar-and-grill-sioux-falls", "name": "Blue Rock Bar & Grill", "image_url": "https://s3-media3.fl.yelpcdn.com/bphoto/CBsgmv3oNHeGR2sImyUFeA/o.jpg", "is_closed": false, "url": "https://www.yelp.com/biz/blue-rock-bar-and-grill-sioux-falls?adjust_creative=svPiIA0fP5C9T0luNYv_TQ&utm_campaign=yelp_api_v3&utm_medium=api_v3_business_search&utm_source=svPiIA0fP5C9T0luNYv_TQ", "review_count": 53, "categories": [{"alias": "burgers", "title": "Burgers"}, {"alias": "pizza", "title": "Pizza"}, {"alias": "wraps", "title": "Wraps"}], "rating": 3.5, "coordinates": {"latitude": 43.5905462, "longitude": -96.7560088}, "transactions": [], "price": "$$", "location": {"address1": "4021 N Bobhalla Dr", "address2": null, "address3": "", "city": "Sioux Falls", "zip_code": "57107", "country": "US", "state": "SD", "display_address": ["4021 N Bobhalla Dr", "Sioux Falls, SD 57107"]}, "phone": "+16052712500", "display_phone": "(605) 271-2500", "distance": 6590.017490486159}, {"id": "JSS4sIofHZZAYPXMMe97Mg", "alias": "pizza-ranch-sioux-falls-2", "name": "Pizza Ranch", "image_url": "https://s3-media1.fl.yelpcdn.com/bphoto/RJPy2WrrWE6LjEo4wDj_Mg/o.jpg", "is_closed": false, "url": "https://www.yelp.com/biz/pizza-ranch-sioux-falls-2?adjust_creative=svPiIA0fP5C9T0luNYv_TQ&utm_campaign=yelp_api_v3&utm_medium=api_v3_business_search&utm_source=svPiIA0fP5C9T0luNYv_TQ", "review_count": 9, "categories": [{"alias": "pizza", "title": "Pizza"}], "rating": 3.0, "coordinates": {"latitude": 43.54482, "longitude": -96.67855}, "transactions": ["delivery"], "price": "$$", "location": {"address1": "3809 E 10th St", "address2": "Ste 100", "address3": null, "city": "Sioux Falls", "zip_code": "57103", "country": "US", "state": "SD", "display_address": ["3809 E 10th St", "Ste 100", "Sioux Falls, SD 57103"]}, "phone": "+16052759777", "display_phone": "(605) 275-9777", "distance": 4801.444216981227}, {"id": "MxadmszGb8DcyOm-mQFkrg", "alias": "marcos-pizza-sioux-falls-2", "name": "Marco's Pizza", "image_url": "https://s3-media1.fl.yelpcdn.com/bphoto/dfLfdMWVVXFLxEH2kN9zww/o.jpg", "is_closed": false, "url": "https://www.yelp.com/biz/marcos-pizza-sioux-falls-2?adjust_creative=svPiIA0fP5C9T0luNYv_TQ&utm_campaign=yelp_api_v3&utm_medium=api_v3_business_search&utm_source=svPiIA0fP5C9T0luNYv_TQ", "review_count": 7, "categories": [{"alias": "pizza", "title": "Pizza"}, {"alias": "chicken_wings", "title": "Chicken Wings"}, {"alias": "salad", "title": "Salad"}], "rating": 2.0, "coordinates": {"latitude": 43.51411, "longitude": -96.67086}, "transactions": ["delivery", "pickup"], "location": {"address1": "3320 S Sycamore Ave", "address2": "", "address3": "", "city": "Sioux Falls", "zip_code": "57110", "country": "US", "state": "SD", "display_address": ["3320 S Sycamore Ave", "Sioux Falls, SD 57110"]}, "phone": "+16052759696", "display_phone": "(605) 275-9696", "distance": 5658.86572428893}, {"id": "gZKqvucRPAcS9P2nImkhQQ", "alias": "overtime-sports-grill-and-bar-sioux-falls", "name": "Overtime Sports Grill & Bar", "image_url": "https://s3-media3.fl.yelpcdn.com/bphoto/j7FPgCD8yREN59yzXYrv2A/o.jpg", "is_closed": false, "url": "https://www.yelp.com/biz/overtime-sports-grill-and-bar-sioux-falls?adjust_creative=svPiIA0fP5C9T0luNYv_TQ&utm_campaign=yelp_api_v3&utm_medium=api_v3_business_search&utm_source=svPiIA0fP5C9T0luNYv_TQ", "review_count": 22, "categories": [{"alias": "sportsbars", "title": "Sports Bars"}, {"alias": "tradamerican", "title": "American (Traditional)"}], "rating": 3.5, "coordinates": {"latitude": 43.5292435, "longitude": -96.6706619}, "transactions": ["delivery", "pickup"], "price": "$$", "location": {"address1": "4529 E 26th St", "address2": "", "address3": "", "city": "Sioux Falls", "zip_code": "57110", "country": "US", "state": "SD", "display_address": ["4529 E 26th St", "Sioux Falls, SD 57110"]}, "phone": "+16052711816", "display_phone": "(605) 271-1816", "distance": 5379.291776067862}, {"id": "atrWn8OuST_1jIaFdewKcQ", "alias": "grille-26-sioux-falls", "name": "Grille 26", "image_url": "https://s3-media2.fl.yelpcdn.com/bphoto/QY-Hu_d3hHFTwJpAA-J6Vg/o.jpg", "is_closed": false, "url": "https://www.yelp.com/biz/grille-26-sioux-falls?adjust_creative=svPiIA0fP5C9T0luNYv_TQ&utm_campaign=yelp_api_v3&utm_medium=api_v3_business_search&utm_source=svPiIA0fP5C9T0luNYv_TQ", "review_count": 179, "categories": [{"alias": "bars", "title": "Bars"}, {"alias": "tradamerican", "title": "American (Traditional)"}], "rating": 4.0, "coordinates": {"latitude": 43.5300793, "longitude": -96.7510322}, "transactions": ["delivery", "pickup"], "price": "$$", "location": {"address1": "1716 S Western Ave", "address2": null, "address3": null, "city": "Sioux Falls", "zip_code": "57105", "country": "US", "state": "SD", "display_address": ["1716 S Western Ave", "Sioux Falls, SD 57105"]}, "phone": "+16054441716", "display_phone": "(605) 444-1716", "distance": 1231.4033752188384}, {"id": "8rElWGfOvb9tfONYfsiZlA", "alias": "safari-bar-and-grill-renner", "name": "Safari Bar & Grill", "image_url": "https://s3-media2.fl.yelpcdn.com/bphoto/kEIVxGvb1SyIEFtd0AVDgg/o.jpg", "is_closed": false, "url": "https://www.yelp.com/biz/safari-bar-and-grill-renner?adjust_creative=svPiIA0fP5C9T0luNYv_TQ&utm_campaign=yelp_api_v3&utm_medium=api_v3_business_search&utm_source=svPiIA0fP5C9T0luNYv_TQ", "review_count": 12, "categories": [{"alias": "burgers", "title": "Burgers"}, {"alias": "pizza", "title": "Pizza"}, {"alias": "tradamerican", "title": "American (Traditional)"}], "rating": 4.0, "coordinates": {"latitude": 43.64635, "longitude": -96.71184}, "transactions": [], "price": "$$", "location": {"address1": "25795 475th Ave", "address2": "", "address3": "", "city": "Renner", "zip_code": "57055", "country": "US", "state": "SD", "display_address": ["25795 475th Ave", "Renner, SD 57055"]}, "phone": "+16052314835", "display_phone": "(605) 231-4835", "distance": 12735.983348934657}, {"id": "NWKaBs5Yrl8K6y-isand6Q", "alias": "tomacellis-too-sioux-falls", "name": "Tomacelli's Too", "image_url": "", "is_closed": false, "url": "https://www.yelp.com/biz/tomacellis-too-sioux-falls?adjust_creative=svPiIA0fP5C9T0luNYv_TQ&utm_campaign=yelp_api_v3&utm_medium=api_v3_business_search&utm_source=svPiIA0fP5C9T0luNYv_TQ", "review_count": 5, "categories": [{"alias": "pizza", "title": "Pizza"}], "rating": 3.0, "coordinates": {"latitude": 43.5465851, "longitude": -96.6893541}, "transactions": ["delivery"], "price": "$", "location": {"address1": "2909 E 10th St", "address2": "", "address3": "", "city": "Sioux Falls", "zip_code": "57103", "country": "US", "state": "SD", "display_address": ["2909 E 10th St", "Sioux Falls, SD 57103"]}, "phone": "+16053349334", "display_phone": "(605) 334-9334", "distance": 4056.4649488037717}, {"id": "IqW25arMONK9_tElwIPWSQ", "alias": "little-caesars-pizza-sioux-falls-3", "name": "Little Caesars Pizza", "image_url": "https://s3-media4.fl.yelpcdn.com/bphoto/u2t9_SJDAEOfmL7QvxPqBg/o.jpg", "is_closed": false, "url": "https://www.yelp.com/biz/little-caesars-pizza-sioux-falls-3?adjust_creative=svPiIA0fP5C9T0luNYv_TQ&utm_campaign=yelp_api_v3&utm_medium=api_v3_business_search&utm_source=svPiIA0fP5C9T0luNYv_TQ", "review_count": 8, "categories": [{"alias": "pizza", "title": "Pizza"}], "rating": 1.5, "coordinates": {"latitude": 43.5152354, "longitude": -96.7313549}, "transactions": [], "price": "$", "location": {"address1": "3221 S Minnesota Ave", "address2": "", "address3": "", "city": "Sioux Falls", "zip_code": "57105", "country": "US", "state": "SD", "display_address": ["3221 S Minnesota Ave", "Sioux Falls, SD 57105"]}, "phone": "+16053323131", "display_phone": "(605) 332-3131", "distance": 2015.265673611009}, {"id": "1VIJ-7F1bs7c-M1RlPvKmQ", "alias": "dominos-pizza-sioux-falls-4", "name": "Domino's Pizza", "image_url": "", "is_closed": false, "url": "https://www.yelp.com/biz/dominos-pizza-sioux-falls-4?adjust_creative=svPiIA0fP5C9T0luNYv_TQ&utm_campaign=yelp_api_v3&utm_medium=api_v3_business_search&utm_source=svPiIA0fP5C9T0luNYv_TQ", "review_count": 4, "categories": [{"alias": "pizza", "title": "Pizza"}, {"alias": "chicken_wings", "title": "Chicken Wings"}, {"alias": "sandwiches", "title": "Sandwiches"}], "rating": 3.5, "coordinates": {"latitude": 43.5443954467773, "longitude": -96.6758117675781}, "transactions": [], "price": "$", "location": {"address1": "4009 E 10th St", "address2": null, "address3": null, "city": "Sioux Falls", "zip_code": "57103", "country": "US", "state": "SD", "display_address": ["4009 E 10th St", "Sioux Falls, SD 57103"]}, "phone": "+16053315171", "display_phone": "(605) 331-5171", "distance": 5012.202192058137}, {"id": "WaWQj4PzFyB6274HGAJ4yA", "alias": "toppers-sioux-falls", "name": "Toppers", "image_url": "https://s3-media4.fl.yelpcdn.com/bphoto/TkYA_DRMNH_gL7oOAyEO5g/o.jpg", "is_closed": false, "url": "https://www.yelp.com/biz/toppers-sioux-falls?adjust_creative=svPiIA0fP5C9T0luNYv_TQ&utm_campaign=yelp_api_v3&utm_medium=api_v3_business_search&utm_source=svPiIA0fP5C9T0luNYv_TQ", "review_count": 8, "categories": [{"alias": "restaurants", "title": "Restaurants"}], "rating": 2.5, "coordinates": {"latitude": 43.561241, "longitude": -96.711959}, "transactions": [], "price": "$$", "location": {"address1": "1213 N Cliff Ave", "address2": null, "address3": null, "city": "Sioux Falls", "zip_code": "57103", "country": "US", "state": "SD", "display_address": ["1213 N Cliff Ave", "Sioux Falls, SD 57103"]}, "phone": "+16053397686", "display_phone": "(605) 339-7686", "distance": 3694.01675703377}, {"id": "nAwVDqddPS3m7ApG_rn74w", "alias": "the-liebrary-sioux-falls", "name": "The Liebrary", "image_url": "https://s3-media2.fl.yelpcdn.com/bphoto/G15Tk7hZwcu3cMANCP6PiQ/o.jpg", "is_closed": false, "url": "https://www.yelp.com/biz/the-liebrary-sioux-falls?adjust_creative=svPiIA0fP5C9T0luNYv_TQ&utm_campaign=yelp_api_v3&utm_medium=api_v3_business_search&utm_source=svPiIA0fP5C9T0luNYv_TQ", "review_count": 14, "categories": [{"alias": "sportsbars", "title": "Sports Bars"}, {"alias": "burgers", "title": "Burgers"}, {"alias": "pizza", "title": "Pizza"}], "rating": 3.0, "coordinates": {"latitude": 43.4987134319203, "longitude": -96.7902374267578}, "transactions": [], "price": "$$", "location": {"address1": "5108 S Marion Rd", "address2": null, "address3": null, "city": "Sioux Falls", "zip_code": "57106", "country": "US", "state": "SD", "display_address": ["5108 S Marion Rd", "Sioux Falls, SD 57106"]}, "phone": "+16052714451", "display_phone": "(605) 271-4451", "distance": 5807.686236554896}, {"id": "UOTsvX4XYiEj0Oknd8K2xw", "alias": "papa-johns-pizza-sioux-falls-3", "name": "Papa Johns Pizza", "image_url": "https://s3-media4.fl.yelpcdn.com/bphoto/MhYc_a3zxrHpEQ5tc8LIUA/o.jpg", "is_closed": false, "url": "https://www.yelp.com/biz/papa-johns-pizza-sioux-falls-3?adjust_creative=svPiIA0fP5C9T0luNYv_TQ&utm_campaign=yelp_api_v3&utm_medium=api_v3_business_search&utm_source=svPiIA0fP5C9T0luNYv_TQ", "review_count": 9, "categories": [{"alias": "pizza", "title": "Pizza"}, {"alias": "chicken_wings", "title": "Chicken Wings"}, {"alias": "hotdogs", "title": "Fast Food"}], "rating": 2.5, "coordinates": {"latitude": 43.528669, "longitude": -96.7901811}, "transactions": ["delivery", "pickup"], "price": "$", "location": {"address1": "5243 West 26Th Street", "address2": "", "address3": "", "city": "Sioux Falls", "zip_code": "57106", "country": "US", "state": "SD", "display_address": ["5243 West 26Th Street", "Sioux Falls, SD 57106"]}, "phone": "+16053617272", "display_phone": "(605) 361-7272", "distance": 4395.855935941182}, {"id": "OZCPt9IXjx1QC2E4ZBir1w", "alias": "critters-lounge-crooks", "name": "Critters Lounge", "image_url": "https://s3-media2.fl.yelpcdn.com/bphoto/P9U47yhVT4vud4SMc5LwlA/o.jpg", "is_closed": false, "url": "https://www.yelp.com/biz/critters-lounge-crooks?adjust_creative=svPiIA0fP5C9T0luNYv_TQ&utm_campaign=yelp_api_v3&utm_medium=api_v3_business_search&utm_source=svPiIA0fP5C9T0luNYv_TQ", "review_count": 2, "categories": [{"alias": "pizza", "title": "Pizza"}, {"alias": "beer_and_wine", "title": "Beer, Wine & Spirits"}], "rating": 5.0, "coordinates": {"latitude": 43.6621349, "longitude": -96.8096999}, "transactions": [], "location": {"address1": "200 E Main St", "address2": "", "address3": "", "city": "Crooks", "zip_code": "57020", "country": "US", "state": "SD", "display_address": ["200 E Main St", "Crooks, SD 57020"]}, "phone": "+16055435425", "display_phone": "(605) 543-5425", "distance": 15534.80714600358}, {"id": "YjqA62bzLResWWgPx5awvQ", "alias": "mamas-ladas-sioux-falls", "name": "Mama's Ladas", "image_url": "https://s3-media1.fl.yelpcdn.com/bphoto/SUJqCWP6FecBgRjXcMh69g/o.jpg", "is_closed": false, "url": "https://www.yelp.com/biz/mamas-ladas-sioux-falls?adjust_creative=svPiIA0fP5C9T0luNYv_TQ&utm_campaign=yelp_api_v3&utm_medium=api_v3_business_search&utm_source=svPiIA0fP5C9T0luNYv_TQ", "review_count": 108, "categories": [{"alias": "mexican", "title": "Mexican"}], "rating": 4.0, "coordinates": {"latitude": 43.5448249, "longitude": -96.7271833}, "transactions": ["delivery"], "price": "$$", "location": {"address1": "116 W 11th St", "address2": "", "address3": "", "city": "Sioux Falls", "zip_code": "57104", "country": "US", "state": "SD", "display_address": ["116 W 11th St", "Sioux Falls, SD 57104"]}, "phone": "+16053322772", "display_phone": "(605) 332-2772", "distance": 1478.3136351922283}, {"id": "rqUTYzlU3u1j6Y5Jav7gfg", "alias": "kravn-bar-and-grill-sioux-falls-2", "name": "kRav'N Bar & Grill", "image_url": "https://s3-media2.fl.yelpcdn.com/bphoto/Z4bkrr0p0_F4u7OCCsuXjg/o.jpg", "is_closed": false, "url": "https://www.yelp.com/biz/kravn-bar-and-grill-sioux-falls-2?adjust_creative=svPiIA0fP5C9T0luNYv_TQ&utm_campaign=yelp_api_v3&utm_medium=api_v3_business_search&utm_source=svPiIA0fP5C9T0luNYv_TQ", "review_count": 85, "categories": [{"alias": "sportsbars", "title": "Sports Bars"}, {"alias": "tradamerican", "title": "American (Traditional)"}, {"alias": "wraps", "title": "Wraps"}], "rating": 3.5, "coordinates": {"latitude": 43.486078, "longitude": -96.769291}, "transactions": ["delivery"], "price": "$$", "location": {"address1": "3512 W 74th St", "address2": "", "address3": "", "city": "Sioux Falls", "zip_code": "57108", "country": "US", "state": "SD", "display_address": ["3512 W 74th St", "Sioux Falls, SD 57108"]}, "phone": "+16052743338", "display_phone": "(605) 274-3338", "distance": 5875.110256743448}, {"id": "b63xs94sSyjkMP9ChesawQ", "alias": "granite-city-food-and-brewery-sioux-falls-3", "name": "Granite City Food & Brewery", "image_url": "https://s3-media1.fl.yelpcdn.com/bphoto/Sl-TsGuaKhRSteoybuRNug/o.jpg", "is_closed": false, "url": "https://www.yelp.com/biz/granite-city-food-and-brewery-sioux-falls-3?adjust_creative=svPiIA0fP5C9T0luNYv_TQ&utm_campaign=yelp_api_v3&utm_medium=api_v3_business_search&utm_source=svPiIA0fP5C9T0luNYv_TQ", "review_count": 200, "categories": [{"alias": "breweries", "title": "Breweries"}, {"alias": "tradamerican", "title": "American (Traditional)"}, {"alias": "breakfast_brunch", "title": "Breakfast & Brunch"}], "rating": 3.5, "coordinates": {"latitude": 43.521484, "longitude": -96.771286}, "transactions": ["delivery", "pickup"], "price": "$$", "location": {"address1": "2620 S Louise Ave", "address2": "", "address3": "", "city": "Sioux Falls", "zip_code": "57106", "country": "US", "state": "SD", "display_address": ["2620 S Louise Ave", "Sioux Falls, SD 57106"]}, "phone": "+16053620000", "display_phone": "(605) 362-0000", "distance": 3099.9935697330334}, {"id": "OUQQGFBwlG_aLwWOavj29Q", "alias": "greggs-substation-and-casino-sioux-falls", "name": "Gregg's Substation And Casino", "image_url": "https://s3-media3.fl.yelpcdn.com/bphoto/rhROS9bN2hlmTm4lSZVfUw/o.jpg", "is_closed": false, "url": "https://www.yelp.com/biz/greggs-substation-and-casino-sioux-falls?adjust_creative=svPiIA0fP5C9T0luNYv_TQ&utm_campaign=yelp_api_v3&utm_medium=api_v3_business_search&utm_source=svPiIA0fP5C9T0luNYv_TQ", "review_count": 23, "categories": [{"alias": "casinos", "title": "Casinos"}, {"alias": "sandwiches", "title": "Sandwiches"}, {"alias": "tradamerican", "title": "American (Traditional)"}], "rating": 5.0, "coordinates": {"latitude": 43.51523, "longitude": -96.73761}, "transactions": ["delivery", "pickup"], "price": "$", "location": {"address1": "1000 W 41st St", "address2": null, "address3": "", "city": "Sioux Falls", "zip_code": "57105", "country": "US", "state": "SD", "display_address": ["1000 W 41st St", "Sioux Falls, SD 57105"]}, "phone": "+16053325454", "display_phone": "(605) 332-5454", "distance": 1994.8097086024393}, {"id": "aRfVmb_H1cKF_XPJJ79eBQ", "alias": "verde-lounge-sioux-falls", "name": "Verde Lounge", "image_url": "https://s3-media3.fl.yelpcdn.com/bphoto/vSxnKPjd2uGVqrWtn97Kkg/o.jpg", "is_closed": false, "url": "https://www.yelp.com/biz/verde-lounge-sioux-falls?adjust_creative=svPiIA0fP5C9T0luNYv_TQ&utm_campaign=yelp_api_v3&utm_medium=api_v3_business_search&utm_source=svPiIA0fP5C9T0luNYv_TQ", "review_count": 4, "categories": [{"alias": "lounges", "title": "Lounges"}], "rating": 4.5, "coordinates": {"latitude": 43.54958376404381, "longitude": -96.72755497055219}, "transactions": ["delivery", "pickup"], "location": {"address1": "100 W 8th St", "address2": null, "address3": "", "city": "Sioux Falls", "zip_code": "57104", "country": "US", "state": "SD", "display_address": ["100 W 8th St", "Sioux Falls, SD 57104"]}, "phone": "+16053392000", "display_phone": "(605) 339-2000", "distance": 1957.929388470718}, {"id": "uOHzy3wkXuXZ9Cn0KWeGsA", "alias": "little-caesars-sioux-falls-2", "name": "Little Caesars", "image_url": "https://s3-media1.fl.yelpcdn.com/bphoto/oXY2hAN-SCjgDZzSvJDiJA/o.jpg", "is_closed": false, "url": "https://www.yelp.com/biz/little-caesars-sioux-falls-2?adjust_creative=svPiIA0fP5C9T0luNYv_TQ&utm_campaign=yelp_api_v3&utm_medium=api_v3_business_search&utm_source=svPiIA0fP5C9T0luNYv_TQ", "review_count": 14, "categories": [{"alias": "pizza", "title": "Pizza"}], "rating": 2.0, "coordinates": {"latitude": 43.5146751, "longitude": -96.792331}, "transactions": [], "price": "$", "location": {"address1": "5417 W 41st St", "address2": "", "address3": "", "city": "Sioux Falls", "zip_code": "57106", "country": "US", "state": "SD", "display_address": ["5417 W 41st St", "Sioux Falls, SD 57106"]}, "phone": "+16053614141", "display_phone": "(605) 361-4141", "distance": 5029.2130440778055}, {"id": "wdy7OwdgFLS4qaLmDMc_yw", "alias": "pizza-hut-sioux-falls-4", "name": "Pizza Hut", "image_url": "https://s3-media2.fl.yelpcdn.com/bphoto/dcxOqyVV0YBCWC3ZDRLVAQ/o.jpg", "is_closed": false, "url": "https://www.yelp.com/biz/pizza-hut-sioux-falls-4?adjust_creative=svPiIA0fP5C9T0luNYv_TQ&utm_campaign=yelp_api_v3&utm_medium=api_v3_business_search&utm_source=svPiIA0fP5C9T0luNYv_TQ", "review_count": 7, "categories": [{"alias": "pizza", "title": "Pizza"}, {"alias": "chicken_wings", "title": "Chicken Wings"}, {"alias": "hotdogs", "title": "Fast Food"}], "rating": 2.5, "coordinates": {"latitude": 43.547057, "longitude": -96.6911271214486}, "transactions": ["pickup", "delivery"], "price": "$", "location": {"address1": "2800 E 10th St", "address2": "", "address3": "", "city": "Sioux Falls", "zip_code": "57103", "country": "US", "state": "SD", "display_address": ["2800 E 10th St", "Sioux Falls, SD 57103"]}, "phone": "+16053325200", "display_phone": "(605) 332-5200", "distance": 3936.509424566159}, {"id": "YUhiubf1ughadRUsyW5WqQ", "alias": "grille-100-sioux-falls-3", "name": "Grille 100", "image_url": "https://s3-media4.fl.yelpcdn.com/bphoto/ADaxm0ebfNzb3GfLPZHOTQ/o.jpg", "is_closed": false, "url": "https://www.yelp.com/biz/grille-100-sioux-falls-3?adjust_creative=svPiIA0fP5C9T0luNYv_TQ&utm_campaign=yelp_api_v3&utm_medium=api_v3_business_search&utm_source=svPiIA0fP5C9T0luNYv_TQ", "review_count": 12, "categories": [{"alias": "breakfast_brunch", "title": "Breakfast & Brunch"}, {"alias": "desserts", "title": "Desserts"}, {"alias": "tradamerican", "title": "American (Traditional)"}], "rating": 3.5, "coordinates": {"latitude": 43.5485488399281, "longitude": -96.7266855016351}, "transactions": [], "price": "$$", "location": {"address1": "100 W 8th St", "address2": "", "address3": "", "city": "Sioux Falls", "zip_code": "57104", "country": "US", "state": "SD", "display_address": ["100 W 8th St", "Sioux Falls, SD 57104"]}, "phone": "+16053392000", "display_phone": "(605) 339-2000", "distance": 1877.3389825283946}, {"id": "ftSxFvg7WPxKvNXrd7o6-g", "alias": "la-luna-cafe-sioux-falls", "name": "La Luna Cafe", "image_url": "https://s3-media2.fl.yelpcdn.com/bphoto/h9vbNpRUt4CcIkfxm7QsXg/o.jpg", "is_closed": false, "url": "https://www.yelp.com/biz/la-luna-cafe-sioux-falls?adjust_creative=svPiIA0fP5C9T0luNYv_TQ&utm_campaign=yelp_api_v3&utm_medium=api_v3_business_search&utm_source=svPiIA0fP5C9T0luNYv_TQ", "review_count": 32, "categories": [{"alias": "coffee", "title": "Coffee & Tea"}, {"alias": "breakfast_brunch", "title": "Breakfast & Brunch"}, {"alias": "cakeshop", "title": "Patisserie/Cake Shop"}], "rating": 4.5, "coordinates": {"latitude": 43.555376, "longitude": -96.727113}, "transactions": ["pickup", "delivery"], "location": {"address1": "701 N Phillips Ave", "address2": "Ste 125", "address3": null, "city": "Sioux Falls", "zip_code": "57104", "country": "US", "state": "SD", "display_address": ["701 N Phillips Ave", "Ste 125", "Sioux Falls, SD 57104"]}, "phone": "+6052756700", "display_phone": "05-275 6700", "distance": 2581.283415597542}, {"id": "ybwEvgfX_W1jKci42zeGxQ", "alias": "josiahs-coffeehouse-and-cafe-sioux-falls-2", "name": "Josiah's Coffeehouse and Cafe", "image_url": "https://s3-media1.fl.yelpcdn.com/bphoto/5JyXdQXo_48rAaxU7LYE2Q/o.jpg", "is_closed": false, "url": "https://www.yelp.com/biz/josiahs-coffeehouse-and-cafe-sioux-falls-2?adjust_creative=svPiIA0fP5C9T0luNYv_TQ&utm_campaign=yelp_api_v3&utm_medium=api_v3_business_search&utm_source=svPiIA0fP5C9T0luNYv_TQ", "review_count": 365, "categories": [{"alias": "cafes", "title": "Cafes"}, {"alias": "bakeries", "title": "Bakeries"}, {"alias": "breakfast_brunch", "title": "Breakfast & Brunch"}], "rating": 4.5, "coordinates": {"latitude": 43.543602, "longitude": -96.727398}, "transactions": ["delivery"], "price": "$$", "location": {"address1": "104 W 12th St", "address2": "", "address3": "", "city": "Sioux Falls", "zip_code": "57104", "country": "US", "state": "SD", "display_address": ["104 W 12th St", "Sioux Falls, SD 57104"]}, "phone": "+16057598255", "display_phone": "(605) 759-8255", "distance": 1368.5406201968078}, {"id": "-dGxyBQ6QwoFnyP92CK4RQ", "alias": "pizza-ranch-tea-2", "name": "Pizza Ranch", "image_url": "https://s3-media1.fl.yelpcdn.com/bphoto/-w8yo6nnip2AewYaKI9rRg/o.jpg", "is_closed": false, "url": "https://www.yelp.com/biz/pizza-ranch-tea-2?adjust_creative=svPiIA0fP5C9T0luNYv_TQ&utm_campaign=yelp_api_v3&utm_medium=api_v3_business_search&utm_source=svPiIA0fP5C9T0luNYv_TQ", "review_count": 8, "categories": [{"alias": "pizza", "title": "Pizza"}], "rating": 3.5, "coordinates": {"latitude": 43.453426, "longitude": -96.825452}, "transactions": ["pickup", "delivery"], "location": {"address1": "801 E Brian St", "address2": null, "address3": null, "city": "Tea", "zip_code": "57064", "country": "US", "state": "SD", "display_address": ["801 E Brian St", "Tea, SD 57064"]}, "phone": "+16053685588", "display_phone": "(605) 368-5588", "distance": 11424.071271127403}, {"id": "PFUyd0Zm2fIjV8r6nDKaDg", "alias": "billy-frogs-sioux-falls", "name": "Billy Frogs", "image_url": "https://s3-media1.fl.yelpcdn.com/bphoto/V0Kd5GqIPtXQaI5FJhXxrQ/o.jpg", "is_closed": false, "url": "https://www.yelp.com/biz/billy-frogs-sioux-falls?adjust_creative=svPiIA0fP5C9T0luNYv_TQ&utm_campaign=yelp_api_v3&utm_medium=api_v3_business_search&utm_source=svPiIA0fP5C9T0luNYv_TQ", "review_count": 12, "categories": [{"alias": "bars", "title": "Bars"}, {"alias": "karaoke", "title": "Karaoke"}, {"alias": "burgers", "title": "Burgers"}], "rating": 3.0, "coordinates": {"latitude": 43.5000275, "longitude": -96.7906951}, "transactions": ["delivery"], "price": "$", "location": {"address1": "5002 S Marion Rd", "address2": null, "address3": null, "city": "Sioux Falls", "zip_code": "57106", "country": "US", "state": "SD", "display_address": ["5002 S Marion Rd", "Sioux Falls, SD 57106"]}, "phone": "+16052756108", "display_phone": "(605) 275-6108", "distance": 5672.647250805693}, {"id": "xmfIvkNi8RzDmwVZrLFIdw", "alias": "pizza-ranch-brandon", "name": "Pizza Ranch", "image_url": "https://s3-media3.fl.yelpcdn.com/bphoto/oVYh-O5PneW3dfJZCf_1hw/o.jpg", "is_closed": false, "url": "https://www.yelp.com/biz/pizza-ranch-brandon?adjust_creative=svPiIA0fP5C9T0luNYv_TQ&utm_campaign=yelp_api_v3&utm_medium=api_v3_business_search&utm_source=svPiIA0fP5C9T0luNYv_TQ", "review_count": 8, "categories": [{"alias": "pizza", "title": "Pizza"}], "rating": 3.5, "coordinates": {"latitude": 43.59294, "longitude": -96.57144}, "transactions": ["delivery"], "price": "$$", "location": {"address1": "202 S Splitrock Blvd", "address2": "", "address3": "", "city": "Brandon", "zip_code": "57005", "country": "US", "state": "SD", "display_address": ["202 S Splitrock Blvd", "Brandon, SD 57005"]}, "phone": "+16055826322", "display_phone": "(605) 582-6322", "distance": 14841.00933859682}, {"id": "b-_7yV1QRWfm1SwNM3eX1Q", "alias": "villa-pizza-sioux-falls", "name": "Villa Pizza", "image_url": "https://s3-media2.fl.yelpcdn.com/bphoto/qyJRl9YvNy-r0KksupvTLw/o.jpg", "is_closed": false, "url": "https://www.yelp.com/biz/villa-pizza-sioux-falls?adjust_creative=svPiIA0fP5C9T0luNYv_TQ&utm_campaign=yelp_api_v3&utm_medium=api_v3_business_search&utm_source=svPiIA0fP5C9T0luNYv_TQ", "review_count": 3, "categories": [{"alias": "pizza", "title": "Pizza"}, {"alias": "italian", "title": "Italian"}], "rating": 2.0, "coordinates": {"latitude": 43.511594, "longitude": -96.776848}, "transactions": ["pickup", "delivery"], "location": {"address1": "4001 W 41st St", "address2": "", "address3": "", "city": "Sioux Falls", "zip_code": "57103", "country": "US", "state": "SD", "display_address": ["4001 W 41st St", "Sioux Falls, SD 57103"]}, "phone": "+16053625989", "display_phone": "(605) 362-5989", "distance": 4068.7614070927048}, {"id": "x4AkmNkM3LsCiWgcXU2Uug", "alias": "the-barcode-bar-and-grill-sioux-falls", "name": "The Barcode Bar and Grill", "image_url": "https://s3-media2.fl.yelpcdn.com/bphoto/j7NJgSFvIM-BOLPlef9L4A/o.jpg", "is_closed": false, "url": "https://www.yelp.com/biz/the-barcode-bar-and-grill-sioux-falls?adjust_creative=svPiIA0fP5C9T0luNYv_TQ&utm_campaign=yelp_api_v3&utm_medium=api_v3_business_search&utm_source=svPiIA0fP5C9T0luNYv_TQ", "review_count": 5, "categories": [{"alias": "tradamerican", "title": "American (Traditional)"}, {"alias": "sportsbars", "title": "Sports Bars"}], "rating": 3.5, "coordinates": {"latitude": 43.592947, "longitude": -96.710857}, "transactions": ["delivery"], "price": "$", "location": {"address1": "4200 N Cliff Ave", "address2": "", "address3": "", "city": "Sioux Falls", "zip_code": "57104", "country": "US", "state": "SD", "display_address": ["4200 N Cliff Ave", "Sioux Falls, SD 57104"]}, "phone": "+16052740275", "display_phone": "(605) 274-0275", "distance": 6959.008250006349}, {"id": "RoAcjqgVgMMYyNHq3EB-lA", "alias": "bin201-sioux-falls", "name": "bin201", "image_url": "https://s3-media4.fl.yelpcdn.com/bphoto/BBUrYWtrc-7Lix9P6zS3Cw/o.jpg", "is_closed": false, "url": "https://www.yelp.com/biz/bin201-sioux-falls?adjust_creative=svPiIA0fP5C9T0luNYv_TQ&utm_campaign=yelp_api_v3&utm_medium=api_v3_business_search&utm_source=svPiIA0fP5C9T0luNYv_TQ", "review_count": 7, "categories": [{"alias": "wine_bars", "title": "Wine Bars"}, {"alias": "breakfast_brunch", "title": "Breakfast & Brunch"}], "rating": 4.5, "coordinates": {"latitude": 43.544527943993, "longitude": -96.7248874157667}, "transactions": ["delivery"], "location": {"address1": "201 E 11th St", "address2": "", "address3": null, "city": "Sioux Falls", "zip_code": "57104", "country": "US", "state": "SD", "display_address": ["201 E 11th St", "Sioux Falls, SD 57104"]}, "phone": "+16052016933", "display_phone": "(605) 201-6933", "distance": 1556.897711854401}, {"id": "-ifo-KRZwT4C8Hh6KoGHGw", "alias": "papa-murphys-sioux-falls-4", "name": "Papa Murphy's", "image_url": "", "is_closed": false, "url": "https://www.yelp.com/biz/papa-murphys-sioux-falls-4?adjust_creative=svPiIA0fP5C9T0luNYv_TQ&utm_campaign=yelp_api_v3&utm_medium=api_v3_business_search&utm_source=svPiIA0fP5C9T0luNYv_TQ", "review_count": 3, "categories": [{"alias": "pizza", "title": "Pizza"}], "rating": 3.0, "coordinates": {"latitude": 43.5146851, "longitude": -96.8098618}, "transactions": ["delivery"], "location": {"address1": "6725 West 41st Street", "address2": "", "address3": "", "city": "Sioux Falls", "zip_code": "57106", "country": "US", "state": "SD", "display_address": ["6725 West 41st Street", "Sioux Falls, SD 57106"]}, "phone": "+16053624664", "display_phone": "(605) 362-4664", "distance": 6325.620448416238}, {"id": "a09HA4QmWM4i8FEuvZ_knA", "alias": "tailgators-brandon", "name": "Tailgators", "image_url": "https://s3-media2.fl.yelpcdn.com/bphoto/-3PnkM7hhFxQ0X7OdwTwNg/o.jpg", "is_closed": false, "url": "https://www.yelp.com/biz/tailgators-brandon?adjust_creative=svPiIA0fP5C9T0luNYv_TQ&utm_campaign=yelp_api_v3&utm_medium=api_v3_business_search&utm_source=svPiIA0fP5C9T0luNYv_TQ", "review_count": 54, "categories": [{"alias": "breakfast_brunch", "title": "Breakfast & Brunch"}, {"alias": "tradamerican", "title": "American (Traditional)"}, {"alias": "bars", "title": "Bars"}], "rating": 3.0, "coordinates": {"latitude": 43.6069412231445, "longitude": -96.5732955932617}, "transactions": ["delivery"], "price": "$$", "location": {"address1": "1013 N Splitrock Blvd", "address2": "", "address3": "", "city": "Brandon", "zip_code": "57005", "country": "US", "state": "SD", "display_address": ["1013 N Splitrock Blvd", "Brandon, SD 57005"]}, "phone": "+16055822520", "display_phone": "(605) 582-2520", "distance": 15465.594293777913}, {"id": "_LZoEYUYYQemZIrrHiY-pg", "alias": "22ten-kitchen-cocktails-sioux-falls", "name": "22TEN Kitchen Cocktails", "image_url": "https://s3-media2.fl.yelpcdn.com/bphoto/yxijSun71X28OC9baXZvmA/o.jpg", "is_closed": false, "url": "https://www.yelp.com/biz/22ten-kitchen-cocktails-sioux-falls?adjust_creative=svPiIA0fP5C9T0luNYv_TQ&utm_campaign=yelp_api_v3&utm_medium=api_v3_business_search&utm_source=svPiIA0fP5C9T0luNYv_TQ", "review_count": 78, "categories": [{"alias": "salad", "title": "Salad"}, {"alias": "burgers", "title": "Burgers"}, {"alias": "newamerican", "title": "American (New)"}], "rating": 4.5, "coordinates": {"latitude": 43.49034, "longitude": -96.749144}, "transactions": ["pickup", "delivery"], "price": "$$", "location": {"address1": "2210 W 69th St", "address2": null, "address3": null, "city": "Sioux Falls", "zip_code": "57108", "country": "US", "state": "SD", "display_address": ["2210 W 69th St", "Sioux Falls, SD 57108"]}, "phone": "+16052711787", "display_phone": "(605) 271-1787", "distance": 4868.500143875566}, {"id": "KEazrxvpI7czfOC_AfAmzw", "alias": "caseys-sioux-falls-10", "name": "Casey's", "image_url": "https://s3-media2.fl.yelpcdn.com/bphoto/yM7jBFtKaIWJuHdFIsUT0g/o.jpg", "is_closed": false, "url": "https://www.yelp.com/biz/caseys-sioux-falls-10?adjust_creative=svPiIA0fP5C9T0luNYv_TQ&utm_campaign=yelp_api_v3&utm_medium=api_v3_business_search&utm_source=svPiIA0fP5C9T0luNYv_TQ", "review_count": 1, "categories": [{"alias": "pizza", "title": "Pizza"}, {"alias": "servicestations", "title": "Gas Stations"}, {"alias": "convenience", "title": "Convenience Stores"}], "rating": 5.0, "coordinates": {"latitude": 43.5409142, "longitude": -96.67204364542229}, "transactions": ["delivery"], "location": {"address1": "701 S Sycamore Ave", "address2": "", "address3": "", "city": "Sioux Falls", "zip_code": "57110", "country": "US", "state": "SD", "display_address": ["701 S Sycamore Ave", "Sioux Falls, SD 57110"]}, "phone": "+16053326961", "display_phone": "(605) 332-6961", "distance": 5228.047255067371}, {"id": "cJubrK7zggt2FHFClG8hog", "alias": "alpine-inn-sioux-falls", "name": "Alpine Inn", "image_url": "https://s3-media1.fl.yelpcdn.com/bphoto/KgTCRieIso4fpmCSystkvg/o.jpg", "is_closed": false, "url": "https://www.yelp.com/biz/alpine-inn-sioux-falls?adjust_creative=svPiIA0fP5C9T0luNYv_TQ&utm_campaign=yelp_api_v3&utm_medium=api_v3_business_search&utm_source=svPiIA0fP5C9T0luNYv_TQ", "review_count": 5, "categories": [{"alias": "bars", "title": "Bars"}, {"alias": "tradamerican", "title": "American (Traditional)"}, {"alias": "arcades", "title": "Arcades"}], "rating": 4.0, "coordinates": {"latitude": 43.545953, "longitude": -96.685248}, "transactions": ["delivery"], "price": "$$", "location": {"address1": "212 S Sneve Ave", "address2": "", "address3": "", "city": "Sioux Falls", "zip_code": "57103", "country": "US", "state": "SD", "display_address": ["212 S Sneve Ave", "Sioux Falls, SD 57103"]}, "phone": "+16053392708", "display_phone": "(605) 339-2708", "distance": 4333.784814791498}, {"id": "6Fp8rHs3j0vd5RyDx1XKEg", "alias": "pizza-hut-brandon-11", "name": "Pizza Hut", "image_url": "https://s3-media3.fl.yelpcdn.com/bphoto/xyvR7Pry4751wGUpIvfoNg/o.jpg", "is_closed": false, "url": "https://www.yelp.com/biz/pizza-hut-brandon-11?adjust_creative=svPiIA0fP5C9T0luNYv_TQ&utm_campaign=yelp_api_v3&utm_medium=api_v3_business_search&utm_source=svPiIA0fP5C9T0luNYv_TQ", "review_count": 4, "categories": [{"alias": "pizza", "title": "Pizza"}, {"alias": "chicken_wings", "title": "Chicken Wings"}, {"alias": "hotdogs", "title": "Fast Food"}], "rating": 2.5, "coordinates": {"latitude": 43.59513651987468, "longitude": -96.57298788428307}, "transactions": ["pickup", "delivery"], "price": "$", "location": {"address1": "101 N Splitrock Blvd", "address2": null, "address3": null, "city": "Brandon", "zip_code": "57005", "country": "US", "state": "SD", "display_address": ["101 N Splitrock Blvd", "Brandon, SD 57005"]}, "phone": "+16055824488", "display_phone": "(605) 582-4488", "distance": 14836.42173241617}, {"id": "bw6RwMzSMly5qHi-HOpRSg", "alias": "hibachi-grill-and-supreme-buffet-sioux-falls-4", "name": "Hibachi Grill And Supreme Buffet", "image_url": "https://s3-media1.fl.yelpcdn.com/bphoto/e1TNb-1xF6h42ZcBWzW-KA/o.jpg", "is_closed": false, "url": "https://www.yelp.com/biz/hibachi-grill-and-supreme-buffet-sioux-falls-4?adjust_creative=svPiIA0fP5C9T0luNYv_TQ&utm_campaign=yelp_api_v3&utm_medium=api_v3_business_search&utm_source=svPiIA0fP5C9T0luNYv_TQ", "review_count": 106, "categories": [{"alias": "buffets", "title": "Buffets"}, {"alias": "sushi", "title": "Sushi Bars"}, {"alias": "japanese", "title": "Japanese"}], "rating": 2.5, "coordinates": {"latitude": 43.5148753, "longitude": -96.7387292}, "transactions": [], "price": "$$", "location": {"address1": "1100 W 41st St", "address2": "", "address3": "", "city": "Sioux Falls", "zip_code": "57105", "country": "US", "state": "SD", "display_address": ["1100 W 41st St", "Sioux Falls, SD 57105"]}, "phone": "+16053353388", "display_phone": "(605) 335-3388", "distance": 2035.3747564365851}, {"id": "x_dWtdkfec7jYTGp2AQmBA", "alias": "potbelly-sandwich-shop-sioux-falls", "name": "Potbelly Sandwich Shop", "image_url": "https://s3-media2.fl.yelpcdn.com/bphoto/7zB9-tyB6GaQUz_21nHNqQ/o.jpg", "is_closed": false, "url": "https://www.yelp.com/biz/potbelly-sandwich-shop-sioux-falls?adjust_creative=svPiIA0fP5C9T0luNYv_TQ&utm_campaign=yelp_api_v3&utm_medium=api_v3_business_search&utm_source=svPiIA0fP5C9T0luNYv_TQ", "review_count": 23, "categories": [{"alias": "hotdogs", "title": "Fast Food"}, {"alias": "sandwiches", "title": "Sandwiches"}, {"alias": "salad", "title": "Salad"}], "rating": 4.0, "coordinates": {"latitude": 43.5126173844971, "longitude": -96.7517706448945}, "transactions": ["pickup", "delivery"], "price": "$", "location": {"address1": "2101 W 41st St", "address2": "Ste 54", "address3": "", "city": "Sioux Falls", "zip_code": "57105", "country": "US", "state": "SD", "display_address": ["2101 W 41st St", "Ste 54", "Sioux Falls, SD 57105"]}, "phone": "+16053679000", "display_phone": "(605) 367-9000", "distance": 2606.048698136583}, {"id": "SQnYLmKgiWqDBkt321SWzQ", "alias": "shenanigans-sports-bar-and-grill-sioux-falls-3", "name": "Shenanigans Sports Bar & Grill", "image_url": "https://s3-media4.fl.yelpcdn.com/bphoto/zuq6A7jvM6DOEuAkZJ478g/o.jpg", "is_closed": false, "url": "https://www.yelp.com/biz/shenanigans-sports-bar-and-grill-sioux-falls-3?adjust_creative=svPiIA0fP5C9T0luNYv_TQ&utm_campaign=yelp_api_v3&utm_medium=api_v3_business_search&utm_source=svPiIA0fP5C9T0luNYv_TQ", "review_count": 28, "categories": [{"alias": "sportsbars", "title": "Sports Bars"}, {"alias": "tradamerican", "title": "American (Traditional)"}, {"alias": "burgers", "title": "Burgers"}], "rating": 2.5, "coordinates": {"latitude": 43.529072, "longitude": -96.831393}, "transactions": ["delivery"], "price": "$$", "location": {"address1": "1903 S Ellis Rd", "address2": "", "address3": "", "city": "Sioux Falls", "zip_code": "57106", "country": "US", "state": "SD", "display_address": ["1903 S Ellis Rd", "Sioux Falls, SD 57106"]}, "phone": "+16053617454", "display_phone": "(605) 361-7454", "distance": 7703.694776121956}, {"id": "i8zOSIiYUN1hKAW9ld94JQ", "alias": "papa-murphys-sioux-falls-6", "name": "Papa Murphy's", "image_url": "", "is_closed": false, "url": "https://www.yelp.com/biz/papa-murphys-sioux-falls-6?adjust_creative=svPiIA0fP5C9T0luNYv_TQ&utm_campaign=yelp_api_v3&utm_medium=api_v3_business_search&utm_source=svPiIA0fP5C9T0luNYv_TQ", "review_count": 2, "categories": [{"alias": "pizza", "title": "Pizza"}], "rating": 3.0, "coordinates": {"latitude": 43.5005, "longitude": -96.70977}, "transactions": ["delivery"], "location": {"address1": "1200 E 57th St", "address2": "Ste 1", "address3": null, "city": "Sioux Falls", "zip_code": "57108", "country": "US", "state": "SD", "display_address": ["1200 E 57th St", "Ste 1", "Sioux Falls, SD 57108"]}, "phone": "+16052741050", "display_phone": "(605) 274-1050", "distance": 4184.548362594158}, {"id": "DP-JrMQDFnZadPuNMlS_Ww", "alias": "pizza-hut-sioux-falls-16", "name": "Pizza Hut", "image_url": "https://s3-media3.fl.yelpcdn.com/bphoto/s4rm_Rdpr--8lXcvw5eEDQ/o.jpg", "is_closed": false, "url": "https://www.yelp.com/biz/pizza-hut-sioux-falls-16?adjust_creative=svPiIA0fP5C9T0luNYv_TQ&utm_campaign=yelp_api_v3&utm_medium=api_v3_business_search&utm_source=svPiIA0fP5C9T0luNYv_TQ", "review_count": 11, "categories": [{"alias": "pizza", "title": "Pizza"}, {"alias": "chicken_wings", "title": "Chicken Wings"}, {"alias": "hotdogs", "title": "Fast Food"}], "rating": 2.0, "coordinates": {"latitude": 43.514388, "longitude": -96.807279}, "transactions": ["delivery", "pickup"], "price": "$", "location": {"address1": "6507 W. 41st Street", "address2": "", "address3": "", "city": "Sioux Falls", "zip_code": "57106", "country": "US", "state": "SD", "display_address": ["6507 W. 41st Street", "Sioux Falls, SD 57106"]}, "phone": "+16053616666", "display_phone": "(605) 361-6666", "distance": 6105.064930673953}, {"id": "c76uYNJNsO5i8g2x8piGDg", "alias": "dominos-pizza-sioux-falls-6", "name": "Domino's Pizza", "image_url": "https://s3-media3.fl.yelpcdn.com/bphoto/X2DA218a4jpBtvm71lrqSQ/o.jpg", "is_closed": false, "url": "https://www.yelp.com/biz/dominos-pizza-sioux-falls-6?adjust_creative=svPiIA0fP5C9T0luNYv_TQ&utm_campaign=yelp_api_v3&utm_medium=api_v3_business_search&utm_source=svPiIA0fP5C9T0luNYv_TQ", "review_count": 10, "categories": [{"alias": "pizza", "title": "Pizza"}, {"alias": "chicken_wings", "title": "Chicken Wings"}, {"alias": "sandwiches", "title": "Sandwiches"}], "rating": 2.5, "coordinates": {"latitude": 43.5002151, "longitude": -96.712106}, "transactions": [], "price": "$", "location": {"address1": "1207 E 57th St", "address2": null, "address3": null, "city": "Sioux Falls", "zip_code": "57108", "country": "US", "state": "SD", "display_address": ["1207 E 57th St", "Sioux Falls, SD 57108"]}, "phone": "+16053713322", "display_phone": "(605) 371-3322", "distance": 4285.815815529258}, {"id": "iz3x_7auS7DgbxLI9T7Vug", "alias": "minervas-restaurant-sioux-falls-sioux-falls", "name": "Minervas Restaurant - Sioux Falls", "image_url": "https://s3-media1.fl.yelpcdn.com/bphoto/06ymAnXcFnAeBRAimrzKkg/o.jpg", "is_closed": false, "url": "https://www.yelp.com/biz/minervas-restaurant-sioux-falls-sioux-falls?adjust_creative=svPiIA0fP5C9T0luNYv_TQ&utm_campaign=yelp_api_v3&utm_medium=api_v3_business_search&utm_source=svPiIA0fP5C9T0luNYv_TQ", "review_count": 257, "categories": [{"alias": "newamerican", "title": "American (New)"}, {"alias": "steak", "title": "Steakhouses"}, {"alias": "cocktailbars", "title": "Cocktail Bars"}], "rating": 4.0, "coordinates": {"latitude": 43.5444641113281, "longitude": -96.7272186279297}, "transactions": ["delivery", "pickup"], "price": "$$$", "location": {"address1": "301 S Phillips Ave", "address2": "", "address3": "", "city": "Sioux Falls", "zip_code": "57104", "country": "US", "state": "SD", "display_address": ["301 S Phillips Ave", "Sioux Falls, SD 57104"]}, "phone": "+16053340386", "display_phone": "(605) 334-0386", "distance": 1455.2566511118582}, {"id": "QGy33oyR3oN1oTDd3JA3iA", "alias": "the-sandbar-and-grill-sioux-falls", "name": "The Sandbar & Grill", "image_url": "https://s3-media2.fl.yelpcdn.com/bphoto/UATeO6f_4wbl27jMfAOzww/o.jpg", "is_closed": false, "url": "https://www.yelp.com/biz/the-sandbar-and-grill-sioux-falls?adjust_creative=svPiIA0fP5C9T0luNYv_TQ&utm_campaign=yelp_api_v3&utm_medium=api_v3_business_search&utm_source=svPiIA0fP5C9T0luNYv_TQ", "review_count": 46, "categories": [{"alias": "bars", "title": "Bars"}, {"alias": "tradamerican", "title": "American (Traditional)"}, {"alias": "burgers", "title": "Burgers"}], "rating": 3.0, "coordinates": {"latitude": 43.5246065, "longitude": -96.7907351}, "transactions": ["delivery"], "price": "$$", "location": {"address1": "2310 S Marion Rd", "address2": null, "address3": null, "city": "Sioux Falls", "zip_code": "57106", "country": "US", "state": "SD", "display_address": ["2310 S Marion Rd", "Sioux Falls, SD 57106"]}, "phone": "+16052711806", "display_phone": "(605) 271-1806", "distance": 4476.052647432271}, {"id": "_JidpiA0FWOa0j_anxhGyA", "alias": "golf-addiction-sioux-falls", "name": "Golf Addiction", "image_url": "https://s3-media1.fl.yelpcdn.com/bphoto/0jBElGcaogSkjF2GhipLuQ/o.jpg", "is_closed": false, "url": "https://www.yelp.com/biz/golf-addiction-sioux-falls?adjust_creative=svPiIA0fP5C9T0luNYv_TQ&utm_campaign=yelp_api_v3&utm_medium=api_v3_business_search&utm_source=svPiIA0fP5C9T0luNYv_TQ", "review_count": 1, "categories": [{"alias": "tradamerican", "title": "American (Traditional)"}], "rating": 4.0, "coordinates": {"latitude": 43.5001315, "longitude": -96.7912385}, "transactions": ["delivery"], "price": "$$$", "location": {"address1": "5301 W 57th St", "address2": "", "address3": "", "city": "Sioux Falls", "zip_code": "57106", "country": "US", "state": "SD", "display_address": ["5301 W 57th St", "Sioux Falls, SD 57106"]}, "phone": "+16052748903", "display_phone": "(605) 274-8903", "distance": 5767.276284966403}, {"id": "cNqP4bZehtpIoQ9ub0UIrQ", "alias": "little-caesars-pizza-sioux-falls-2", "name": "Little Caesars Pizza", "image_url": "", "is_closed": false, "url": "https://www.yelp.com/biz/little-caesars-pizza-sioux-falls-2?adjust_creative=svPiIA0fP5C9T0luNYv_TQ&utm_campaign=yelp_api_v3&utm_medium=api_v3_business_search&utm_source=svPiIA0fP5C9T0luNYv_TQ", "review_count": 2, "categories": [{"alias": "pizza", "title": "Pizza"}], "rating": 3.0, "coordinates": {"latitude": 43.5467949, "longitude": -96.7122099}, "transactions": [], "price": "$", "location": {"address1": "1108 E 10th St", "address2": "", "address3": "", "city": "Sioux Falls", "zip_code": "57103", "country": "US", "state": "SD", "display_address": ["1108 E 10th St", "Sioux Falls, SD 57103"]}, "phone": "+16053351010", "display_phone": "(605) 335-1010", "distance": 2487.637772757782}, {"id": "ypktjdAN_v6fW-G8SkPXeg", "alias": "paramount-cocktails-and-food-sioux-falls", "name": "Paramount Cocktails & Food", "image_url": "https://s3-media3.fl.yelpcdn.com/bphoto/hzxsPyRxftSMyZIDyVBXOQ/o.jpg", "is_closed": false, "url": "https://www.yelp.com/biz/paramount-cocktails-and-food-sioux-falls?adjust_creative=svPiIA0fP5C9T0luNYv_TQ&utm_campaign=yelp_api_v3&utm_medium=api_v3_business_search&utm_source=svPiIA0fP5C9T0luNYv_TQ", "review_count": 18, "categories": [{"alias": "bars", "title": "Bars"}, {"alias": "tradamerican", "title": "American (Traditional)"}, {"alias": "pianobars", "title": "Piano Bars"}], "rating": 3.5, "coordinates": {"latitude": 43.544492572546, "longitude": -96.7268601804972}, "transactions": ["delivery"], "price": "$$", "location": {"address1": "307 S Phillips Ave", "address2": "", "address3": "", "city": "Sioux Falls", "zip_code": "57104", "country": "US", "state": "SD", "display_address": ["307 S Phillips Ave", "Sioux Falls, SD 57104"]}, "phone": "+16053340386", "display_phone": "(605) 334-0386", "distance": 1457.6015689657127}, {"id": "NijgQ5OdMfwVJXNKI_Ta9A", "alias": "chuck-e-cheese-sioux-falls-2", "name": "Chuck E. Cheese", "image_url": "https://s3-media2.fl.yelpcdn.com/bphoto/P2SJwVUrh55pNllDZ33_iw/o.jpg", "is_closed": false, "url": "https://www.yelp.com/biz/chuck-e-cheese-sioux-falls-2?adjust_creative=svPiIA0fP5C9T0luNYv_TQ&utm_campaign=yelp_api_v3&utm_medium=api_v3_business_search&utm_source=svPiIA0fP5C9T0luNYv_TQ", "review_count": 10, "categories": [{"alias": "pizza", "title": "Pizza"}, {"alias": "arcades", "title": "Arcades"}, {"alias": "kids_activities", "title": "Kids Activities"}], "rating": 2.0, "coordinates": {"latitude": 43.52273, "longitude": -96.77193}, "transactions": ["delivery", "pickup"], "price": "$$", "location": {"address1": "2600 Louise", "address2": null, "address3": null, "city": "Sioux Falls", "zip_code": "57106", "country": "US", "state": "SD", "display_address": ["2600 Louise", "Sioux Falls, SD 57106"]}, "phone": "+16053626100", "display_phone": "(605) 362-6100", "distance": 3107.2049727923386}, {"id": "mQCRotsRISLlOKRcD6ES1Q", "alias": "212-boiling-point-brandon", "name": "212 Boiling Point", "image_url": "https://s3-media4.fl.yelpcdn.com/bphoto/rwLmvouKsR2tLy8pfPSB3g/o.jpg", "is_closed": false, "url": "https://www.yelp.com/biz/212-boiling-point-brandon?adjust_creative=svPiIA0fP5C9T0luNYv_TQ&utm_campaign=yelp_api_v3&utm_medium=api_v3_business_search&utm_source=svPiIA0fP5C9T0luNYv_TQ", "review_count": 27, "categories": [{"alias": "tradamerican", "title": "American (Traditional)"}], "rating": 3.5, "coordinates": {"latitude": 43.59135, "longitude": -96.57064}, "transactions": ["delivery"], "price": "$$", "location": {"address1": "328 S Splitrock Blvd", "address2": null, "address3": null, "city": "Brandon", "zip_code": "57005", "country": "US", "state": "SD", "display_address": ["328 S Splitrock Blvd", "Brandon, SD 57005"]}, "phone": "+16055823531", "display_phone": "(605) 582-3531", "distance": 14788.655836134703}, {"id": "sR4UCgRY5ZNlUCgKL4Bgxg", "alias": "caseys-tea-3", "name": "Casey's", "image_url": "https://s3-media3.fl.yelpcdn.com/bphoto/ukTFBuQXwL4dZsenPxGDeg/o.jpg", "is_closed": false, "url": "https://www.yelp.com/biz/caseys-tea-3?adjust_creative=svPiIA0fP5C9T0luNYv_TQ&utm_campaign=yelp_api_v3&utm_medium=api_v3_business_search&utm_source=svPiIA0fP5C9T0luNYv_TQ", "review_count": 1, "categories": [{"alias": "servicestations", "title": "Gas Stations"}, {"alias": "convenience", "title": "Convenience Stores"}, {"alias": "pizza", "title": "Pizza"}], "rating": 4.0, "coordinates": {"latitude": 43.461611386106135, "longitude": -96.80039132001237}, "transactions": [], "location": {"address1": "2100 N Bakker Lndg", "address2": null, "address3": null, "city": "Tea", "zip_code": "57064", "country": "US", "state": "SD", "display_address": ["2100 N Bakker Lndg", "Tea, SD 57064"]}, "phone": "+16053689892", "display_phone": "(605) 368-9892", "distance": 9493.290798626529}, {"id": "3RoXkXoNvZq9Jo5P_FNW7A", "alias": "papa-johns-pizza-sioux-falls-2", "name": "Papa Johns Pizza", "image_url": "https://s3-media1.fl.yelpcdn.com/bphoto/1b-6HksQptker2oasXTYJw/o.jpg", "is_closed": false, "url": "https://www.yelp.com/biz/papa-johns-pizza-sioux-falls-2?adjust_creative=svPiIA0fP5C9T0luNYv_TQ&utm_campaign=yelp_api_v3&utm_medium=api_v3_business_search&utm_source=svPiIA0fP5C9T0luNYv_TQ", "review_count": 2, "categories": [{"alias": "pizza", "title": "Pizza"}, {"alias": "chicken_wings", "title": "Chicken Wings"}, {"alias": "hotdogs", "title": "Fast Food"}], "rating": 1.0, "coordinates": {"latitude": 43.5281316706727, "longitude": -96.67051198509046}, "transactions": ["delivery", "pickup"], "price": "$", "location": {"address1": "1914 South Sycamore Avenue", "address2": "", "address3": "", "city": "Sioux Falls", "zip_code": "57110", "country": "US", "state": "SD", "display_address": ["1914 South Sycamore Avenue", "Sioux Falls, SD 57110"]}, "phone": "+16053717272", "display_phone": "(605) 371-7272", "distance": 5307.341318170509}, {"id": "jDJYw-1w3Z4UNkMn8Np2Mw", "alias": "crawfords-bar-and-grill-sioux-falls", "name": "Crawford's Bar & Grill", "image_url": "https://s3-media4.fl.yelpcdn.com/bphoto/i4K-NjJIgaPvcXGtTJZHiw/o.jpg", "is_closed": false, "url": "https://www.yelp.com/biz/crawfords-bar-and-grill-sioux-falls?adjust_creative=svPiIA0fP5C9T0luNYv_TQ&utm_campaign=yelp_api_v3&utm_medium=api_v3_business_search&utm_source=svPiIA0fP5C9T0luNYv_TQ", "review_count": 120, "categories": [{"alias": "bars", "title": "Bars"}, {"alias": "newamerican", "title": "American (New)"}], "rating": 3.5, "coordinates": {"latitude": 43.5454341, "longitude": -96.7262689}, "transactions": ["delivery"], "price": "$$", "location": {"address1": "214 S Phillips Ave", "address2": "", "address3": "", "city": "Sioux Falls", "zip_code": "57104", "country": "US", "state": "SD", "display_address": ["214 S Phillips Ave", "Sioux Falls, SD 57104"]}, "phone": "+16053325333", "display_phone": "(605) 332-5333", "distance": 1582.3468910097936}, {"id": "j76DptNypSxbE0-yeSgo5Q", "alias": "pizza-hut-sioux-falls-12", "name": "Pizza Hut", "image_url": "https://s3-media3.fl.yelpcdn.com/bphoto/nlTBzUndd6WjzdOuonN47g/o.jpg", "is_closed": false, "url": "https://www.yelp.com/biz/pizza-hut-sioux-falls-12?adjust_creative=svPiIA0fP5C9T0luNYv_TQ&utm_campaign=yelp_api_v3&utm_medium=api_v3_business_search&utm_source=svPiIA0fP5C9T0luNYv_TQ", "review_count": 3, "categories": [{"alias": "pizza", "title": "Pizza"}, {"alias": "chicken_wings", "title": "Chicken Wings"}, {"alias": "hotdogs", "title": "Fast Food"}], "rating": 1.0, "coordinates": {"latitude": 43.4745877232766, "longitude": -96.730701364418}, "transactions": ["delivery", "pickup"], "location": {"address1": "7730 S Dakota Hawk Ave", "address2": null, "address3": null, "city": "Sioux Falls", "zip_code": "57108", "country": "US", "state": "SD", "display_address": ["7730 S Dakota Hawk Ave", "Sioux Falls, SD 57108"]}, "phone": "+16053711777", "display_phone": "(605) 371-1777", "distance": 6517.134403952971}, {"id": "MiFQYc5EzBJr4i9nz8lJuQ", "alias": "tcs-referee-sports-bar-and-grill-sioux-falls", "name": "TC's Referee Sports Bar & Grill", "image_url": "https://s3-media3.fl.yelpcdn.com/bphoto/ajyMjhM0yuWV13uH5X34yw/o.jpg", "is_closed": false, "url": "https://www.yelp.com/biz/tcs-referee-sports-bar-and-grill-sioux-falls?adjust_creative=svPiIA0fP5C9T0luNYv_TQ&utm_campaign=yelp_api_v3&utm_medium=api_v3_business_search&utm_source=svPiIA0fP5C9T0luNYv_TQ", "review_count": 54, "categories": [{"alias": "tradamerican", "title": "American (Traditional)"}, {"alias": "sportsbars", "title": "Sports Bars"}], "rating": 4.0, "coordinates": {"latitude": 43.529765, "longitude": -96.7920816281723}, "transactions": ["delivery", "pickup"], "price": "$$", "location": {"address1": "5322 W 26th St", "address2": "", "address3": "", "city": "Sioux Falls", "zip_code": "57106", "country": "US", "state": "SD", "display_address": ["5322 W 26th St", "Sioux Falls, SD 57106"]}, "phone": "+16053612208", "display_phone": "(605) 361-2208", "distance": 4536.607325417401}, {"id": "BO09NQSS87lscxZA0_WO7A", "alias": "caseys-sioux-falls-11", "name": "Casey's", "image_url": "https://s3-media1.fl.yelpcdn.com/bphoto/T864OSKso_JoDHB1ABvgCg/o.jpg", "is_closed": false, "url": "https://www.yelp.com/biz/caseys-sioux-falls-11?adjust_creative=svPiIA0fP5C9T0luNYv_TQ&utm_campaign=yelp_api_v3&utm_medium=api_v3_business_search&utm_source=svPiIA0fP5C9T0luNYv_TQ", "review_count": 2, "categories": [{"alias": "servicestations", "title": "Gas Stations"}, {"alias": "convenience", "title": "Convenience Stores"}, {"alias": "pizza", "title": "Pizza"}], "rating": 3.0, "coordinates": {"latitude": 43.54609053926287, "longitude": -96.7020399950903}, "transactions": ["delivery"], "location": {"address1": "1901 E 10th St", "address2": null, "address3": null, "city": "Sioux Falls", "zip_code": "57103", "country": "US", "state": "SD", "display_address": ["1901 E 10th St", "Sioux Falls, SD 57103"]}, "phone": "+16053300320", "display_phone": "(605) 330-0320", "distance": 3096.0046675765093}, {"id": "3Vo1tHwJS6KES7GRORBGHw", "alias": "hy-vee-sioux-falls-4", "name": "Hy-Vee", "image_url": "https://s3-media1.fl.yelpcdn.com/bphoto/f4zTjV6v0ARZ8FCmmbd0Mw/o.jpg", "is_closed": false, "url": "https://www.yelp.com/biz/hy-vee-sioux-falls-4?adjust_creative=svPiIA0fP5C9T0luNYv_TQ&utm_campaign=yelp_api_v3&utm_medium=api_v3_business_search&utm_source=svPiIA0fP5C9T0luNYv_TQ", "review_count": 13, "categories": [{"alias": "grocery", "title": "Grocery"}], "rating": 3.5, "coordinates": {"latitude": 43.5175, "longitude": -96.72903}, "transactions": ["delivery", "pickup"], "price": "$$", "location": {"address1": "3000 S Minnesota Ave", "address2": "", "address3": "", "city": "Sioux Falls", "zip_code": "57105", "country": "US", "state": "SD", "display_address": ["3000 S Minnesota Ave", "Sioux Falls, SD 57105"]}, "phone": "+16053347231", "display_phone": "(605) 334-7231", "distance": 1836.597788555484}, {"id": "isOrZrCoavfdD6yZOJCJ7w", "alias": "cherry-creek-grill-sioux-falls-4", "name": "Cherry Creek Grill", "image_url": "https://s3-media2.fl.yelpcdn.com/bphoto/bNIORtWlbf4oLpgo_qCQiw/o.jpg", "is_closed": false, "url": "https://www.yelp.com/biz/cherry-creek-grill-sioux-falls-4?adjust_creative=svPiIA0fP5C9T0luNYv_TQ&utm_campaign=yelp_api_v3&utm_medium=api_v3_business_search&utm_source=svPiIA0fP5C9T0luNYv_TQ", "review_count": 46, "categories": [{"alias": "tradamerican", "title": "American (Traditional)"}, {"alias": "venues", "title": "Venues & Event Spaces"}, {"alias": "sportsbars", "title": "Sports Bars"}], "rating": 3.0, "coordinates": {"latitude": 43.529804, "longitude": -96.686294}, "transactions": ["delivery", "pickup"], "price": "$$", "location": {"address1": "3104 E 26th St", "address2": "", "address3": "", "city": "Sioux Falls", "zip_code": "57103", "country": "US", "state": "SD", "display_address": ["3104 E 26th St", "Sioux Falls, SD 57103"]}, "phone": "+16053362333", "display_phone": "(605) 336-2333", "distance": 4013.9922216146797}, {"id": "m7ItqCCRZ8fsA9KYh23BYQ", "alias": "red-robin-gourmet-burgers-and-brews-sioux-falls", "name": "Red Robin Gourmet Burgers and Brews", "image_url": "https://s3-media4.fl.yelpcdn.com/bphoto/6-BBPjuM0YqyNxy9qXXVPA/o.jpg", "is_closed": false, "url": "https://www.yelp.com/biz/red-robin-gourmet-burgers-and-brews-sioux-falls?adjust_creative=svPiIA0fP5C9T0luNYv_TQ&utm_campaign=yelp_api_v3&utm_medium=api_v3_business_search&utm_source=svPiIA0fP5C9T0luNYv_TQ", "review_count": 75, "categories": [{"alias": "burgers", "title": "Burgers"}, {"alias": "tradamerican", "title": "American (Traditional)"}], "rating": 2.5, "coordinates": {"latitude": 43.51196, "longitude": -96.77623}, "transactions": ["delivery", "pickup"], "price": "$$", "location": {"address1": "5000 W Empire Mall", "address2": "", "address3": "", "city": "Sioux Falls", "zip_code": "57106", "country": "US", "state": "SD", "display_address": ["5000 W Empire Mall", "Sioux Falls, SD 57106"]}, "phone": "+16059068286", "display_phone": "(605) 906-8286", "distance": 4004.5257787073897}, {"id": "1JFPcDYddbEksVsYaoJpyQ", "alias": "leonardos-cafe-and-catering-sioux-falls", "name": "Leonardo's Cafe and Catering", "image_url": "https://s3-media2.fl.yelpcdn.com/bphoto/Utp86q-B9wiKxVM5M5LfEQ/o.jpg", "is_closed": false, "url": "https://www.yelp.com/biz/leonardos-cafe-and-catering-sioux-falls?adjust_creative=svPiIA0fP5C9T0luNYv_TQ&utm_campaign=yelp_api_v3&utm_medium=api_v3_business_search&utm_source=svPiIA0fP5C9T0luNYv_TQ", "review_count": 2, "categories": [{"alias": "cafes", "title": "Cafes"}, {"alias": "newamerican", "title": "American (New)"}, {"alias": "sandwiches", "title": "Sandwiches"}], "rating": 2.5, "coordinates": {"latitude": 43.544048, "longitude": -96.729011}, "transactions": [], "location": {"address1": "301 S Main Ave", "address2": "", "address3": "", "city": "Sioux Falls", "zip_code": "57104", "country": "US", "state": "SD", "display_address": ["301 S Main Ave", "Sioux Falls, SD 57104"]}, "phone": "+16057312384", "display_phone": "(605) 731-2384", "distance": 1316.3505816011566}, {"id": "qQsO3-L-iJ0MBHQ3FexxMQ", "alias": "caseys-sioux-falls-9", "name": "Casey's", "image_url": "https://s3-media3.fl.yelpcdn.com/bphoto/DrfmL65xYxGkf8ZM7VsS_Q/o.jpg", "is_closed": false, "url": "https://www.yelp.com/biz/caseys-sioux-falls-9?adjust_creative=svPiIA0fP5C9T0luNYv_TQ&utm_campaign=yelp_api_v3&utm_medium=api_v3_business_search&utm_source=svPiIA0fP5C9T0luNYv_TQ", "review_count": 3, "categories": [{"alias": "servicestations", "title": "Gas Stations"}, {"alias": "convenience", "title": "Convenience Stores"}, {"alias": "pizza", "title": "Pizza"}], "rating": 3.5, "coordinates": {"latitude": 43.52975878698772, "longitude": -96.83011144524988}, "transactions": ["delivery"], "location": {"address1": "8400 W 26th St", "address2": "", "address3": null, "city": "Sioux Falls", "zip_code": "57106", "country": "US", "state": "SD", "display_address": ["8400 W 26th St", "Sioux Falls, SD 57106"]}, "phone": "+16053619955", "display_phone": "(605) 361-9955", "distance": 7596.425669077624}, {"id": "PzjhKbJakQZphDHicvO0Pg", "alias": "caseys-brandon-2", "name": "Casey's", "image_url": "https://s3-media4.fl.yelpcdn.com/bphoto/jnt87ihUjkebf-A9llDW0Q/o.jpg", "is_closed": false, "url": "https://www.yelp.com/biz/caseys-brandon-2?adjust_creative=svPiIA0fP5C9T0luNYv_TQ&utm_campaign=yelp_api_v3&utm_medium=api_v3_business_search&utm_source=svPiIA0fP5C9T0luNYv_TQ", "review_count": 5, "categories": [{"alias": "pizza", "title": "Pizza"}, {"alias": "convenience", "title": "Convenience Stores"}, {"alias": "servicestations", "title": "Gas Stations"}], "rating": 2.0, "coordinates": {"latitude": 43.594257112776845, "longitude": -96.59244293600739}, "transactions": ["delivery"], "price": "$", "location": {"address1": "101 W Holly Blvd", "address2": "", "address3": "", "city": "Brandon", "zip_code": "57005", "country": "US", "state": "SD", "display_address": ["101 W Holly Blvd", "Brandon, SD 57005"]}, "phone": "+16055826678", "display_phone": "(605) 582-6678", "distance": 13418.77690608691}, {"id": "aRI-FKrL9Iu_bxBxeupSAA", "alias": "nikkis-la-mexicana-sioux-falls", "name": "Nikki's La Mexicana", "image_url": "", "is_closed": false, "url": "https://www.yelp.com/biz/nikkis-la-mexicana-sioux-falls?adjust_creative=svPiIA0fP5C9T0luNYv_TQ&utm_campaign=yelp_api_v3&utm_medium=api_v3_business_search&utm_source=svPiIA0fP5C9T0luNYv_TQ", "review_count": 2, "categories": [{"alias": "grocery", "title": "Grocery"}, {"alias": "mexican", "title": "Mexican"}], "rating": 3.0, "coordinates": {"latitude": 43.5467949, "longitude": -96.712058}, "transactions": [], "location": {"address1": "1112 E 10th St", "address2": "", "address3": "", "city": "Sioux Falls", "zip_code": "57103", "country": "US", "state": "SD", "display_address": ["1112 E 10th St", "Sioux Falls, SD 57103"]}, "phone": "+16053354462", "display_phone": "(605) 335-4462", "distance": 2463.403779941497}, {"id": "ohvrGlZG_oo4_C2BReulHA", "alias": "caseys-sioux-falls-5", "name": "Casey's", "image_url": "https://s3-media2.fl.yelpcdn.com/bphoto/5eTNUiRnlhW1NDt4MSW1vQ/o.jpg", "is_closed": false, "url": "https://www.yelp.com/biz/caseys-sioux-falls-5?adjust_creative=svPiIA0fP5C9T0luNYv_TQ&utm_campaign=yelp_api_v3&utm_medium=api_v3_business_search&utm_source=svPiIA0fP5C9T0luNYv_TQ", "review_count": 1, "categories": [{"alias": "convenience", "title": "Convenience Stores"}, {"alias": "servicestations", "title": "Gas Stations"}, {"alias": "pizza", "title": "Pizza"}], "rating": 1.0, "coordinates": {"latitude": 43.55272012918457, "longitude": -96.76038616883162}, "transactions": ["delivery"], "location": {"address1": "500 N Kiwanis Ave", "address2": null, "address3": null, "city": "Sioux Falls", "zip_code": "57104", "country": "US", "state": "SD", "display_address": ["500 N Kiwanis Ave", "Sioux Falls, SD 57104"]}, "phone": "+16053391097", "display_phone": "(605) 339-1097", "distance": 2939.210133944926}, {"id": "gEnDUfFHBuqRhbOmh1SVSA", "alias": "the-thirsty-duck-sioux-falls-2", "name": "The Thirsty Duck", "image_url": "https://s3-media4.fl.yelpcdn.com/bphoto/ACaqpl4-Oe9SqH1fHWvhkQ/o.jpg", "is_closed": false, "url": "https://www.yelp.com/biz/the-thirsty-duck-sioux-falls-2?adjust_creative=svPiIA0fP5C9T0luNYv_TQ&utm_campaign=yelp_api_v3&utm_medium=api_v3_business_search&utm_source=svPiIA0fP5C9T0luNYv_TQ", "review_count": 9, "categories": [{"alias": "divebars", "title": "Dive Bars"}, {"alias": "poolhalls", "title": "Pool Halls"}, {"alias": "tradamerican", "title": "American (Traditional)"}], "rating": 3.0, "coordinates": {"latitude": 43.53826, "longitude": -96.79154}, "transactions": ["delivery", "pickup"], "price": "$$$$", "location": {"address1": "945 S Marion Rd", "address2": "Ste 101", "address3": null, "city": "Sioux Falls", "zip_code": "57106", "country": "US", "state": "SD", "display_address": ["945 S Marion Rd", "Ste 101", "Sioux Falls, SD 57106"]}, "phone": "+16053340124", "display_phone": "(605) 334-0124", "distance": 4536.702890329979}, {"id": "ReSaqR9KnzoUaxzW66sFgw", "alias": "wingstop-sioux-falls", "name": "Wingstop", "image_url": "https://s3-media3.fl.yelpcdn.com/bphoto/tY8WpcSkkPK44I-iDQPivQ/o.jpg", "is_closed": false, "url": "https://www.yelp.com/biz/wingstop-sioux-falls?adjust_creative=svPiIA0fP5C9T0luNYv_TQ&utm_campaign=yelp_api_v3&utm_medium=api_v3_business_search&utm_source=svPiIA0fP5C9T0luNYv_TQ", "review_count": 19, "categories": [{"alias": "chicken_wings", "title": "Chicken Wings"}], "rating": 2.5, "coordinates": {"latitude": 43.5283991380682, "longitude": -96.7311845719814}, "transactions": [], "price": "$$", "location": {"address1": "1902 S Minnesota Ave", "address2": "", "address3": "", "city": "Sioux Falls", "zip_code": "57105", "country": "US", "state": "SD", "display_address": ["1902 S Minnesota Ave", "Sioux Falls, SD 57105"]}, "phone": "+16052759464", "display_phone": "(605) 275-9464", "distance": 648.2374096366477}, {"id": "6qvYMtDgyUXfWPDMRR5SSw", "alias": "papa-murphys-sioux-falls-3", "name": "Papa Murphy's", "image_url": "", "is_closed": false, "url": "https://www.yelp.com/biz/papa-murphys-sioux-falls-3?adjust_creative=svPiIA0fP5C9T0luNYv_TQ&utm_campaign=yelp_api_v3&utm_medium=api_v3_business_search&utm_source=svPiIA0fP5C9T0luNYv_TQ", "review_count": 4, "categories": [{"alias": "pizza", "title": "Pizza"}], "rating": 3.0, "coordinates": {"latitude": 43.5312023, "longitude": -96.6712191}, "transactions": ["delivery"], "location": {"address1": "1608 South Sycamore Avenue", "address2": "", "address3": "", "city": "Sioux Falls", "zip_code": "57110", "country": "US", "state": "SD", "display_address": ["1608 South Sycamore Avenue", "Sioux Falls, SD 57110"]}, "phone": "+16053357272", "display_phone": "(605) 335-7272", "distance": 5278.4397189489755}, {"id": "tTowbV8Q4gvqRIQf2AryTA", "alias": "hy-vee-sioux-falls-2", "name": "Hy-Vee", "image_url": "https://s3-media2.fl.yelpcdn.com/bphoto/Mee1gNjJWVCO8bam4SfQ6A/o.jpg", "is_closed": false, "url": "https://www.yelp.com/biz/hy-vee-sioux-falls-2?adjust_creative=svPiIA0fP5C9T0luNYv_TQ&utm_campaign=yelp_api_v3&utm_medium=api_v3_business_search&utm_source=svPiIA0fP5C9T0luNYv_TQ", "review_count": 5, "categories": [{"alias": "grocery", "title": "Grocery"}], "rating": 4.0, "coordinates": {"latitude": 43.527425, "longitude": -96.789591}, "transactions": ["delivery", "pickup"], "price": "$", "location": {"address1": "1900 S Marion Rd", "address2": null, "address3": null, "city": "Sioux Falls", "zip_code": "57106", "country": "US", "state": "SD", "display_address": ["1900 S Marion Rd", "Sioux Falls, SD 57106"]}, "phone": "+16053613442", "display_phone": "(605) 361-3442", "distance": 4366.3649046957835}, {"id": "CLygDUV_Z1nuFSeWR8bxBg", "alias": "hair-by-stewarts-sioux-falls-8", "name": "Hair By Stewarts", "image_url": "", "is_closed": false, "url": "https://www.yelp.com/biz/hair-by-stewarts-sioux-falls-8?adjust_creative=svPiIA0fP5C9T0luNYv_TQ&utm_campaign=yelp_api_v3&utm_medium=api_v3_business_search&utm_source=svPiIA0fP5C9T0luNYv_TQ", "review_count": 1, "categories": [{"alias": "hair", "title": "Hair Salons"}], "rating": 2.0, "coordinates": {"latitude": 43.5110745324887, "longitude": -96.7773623646263}, "transactions": [], "location": {"address1": "1280 Empire Mall", "address2": "Empire Mall", "address3": "", "city": "Sioux Falls", "zip_code": "57106", "country": "US", "state": "SD", "display_address": ["1280 Empire Mall", "Empire Mall", "Sioux Falls, SD 57106"]}, "phone": "+16053618221", "display_phone": "(605) 361-8221", "distance": 4136.314631347519}, {"id": "j-fRH9NHqoCCzYyc8ApqYA", "alias": "hy-vee-sioux-falls-6", "name": "Hy-Vee", "image_url": "https://s3-media2.fl.yelpcdn.com/bphoto/sHHfq9zAVnh3TNUzMwouVQ/o.jpg", "is_closed": false, "url": "https://www.yelp.com/biz/hy-vee-sioux-falls-6?adjust_creative=svPiIA0fP5C9T0luNYv_TQ&utm_campaign=yelp_api_v3&utm_medium=api_v3_business_search&utm_source=svPiIA0fP5C9T0luNYv_TQ", "review_count": 4, "categories": [{"alias": "grocery", "title": "Grocery"}], "rating": 2.0, "coordinates": {"latitude": 43.530558, "longitude": -96.672488}, "transactions": ["delivery", "pickup"], "price": "$$", "location": {"address1": "1601 S Sycamore", "address2": null, "address3": null, "city": "Sioux Falls", "zip_code": "57103", "country": "US", "state": "SD", "display_address": ["1601 S Sycamore", "Sioux Falls, SD 57103"]}, "phone": "+16053344570", "display_phone": "(605) 334-4570", "distance": 5154.930138268009}, {"id": "QsRe31P5tBHp_df8EV68hQ", "alias": "dave-and-busters-sioux-falls-2", "name": "Dave & Buster's", "image_url": "https://s3-media1.fl.yelpcdn.com/bphoto/9Vew1_99gGJRNNTnGBVQ_A/o.jpg", "is_closed": false, "url": "https://www.yelp.com/biz/dave-and-busters-sioux-falls-2?adjust_creative=svPiIA0fP5C9T0luNYv_TQ&utm_campaign=yelp_api_v3&utm_medium=api_v3_business_search&utm_source=svPiIA0fP5C9T0luNYv_TQ", "review_count": 13, "categories": [{"alias": "bars", "title": "Bars"}, {"alias": "tradamerican", "title": "American (Traditional)"}, {"alias": "arcades", "title": "Arcades"}], "rating": 2.0, "coordinates": {"latitude": 43.520457942355215, "longitude": -96.7831007577775}, "transactions": ["delivery", "pickup"], "location": {"address1": "2690 S Lorraine Pl", "address2": "", "address3": null, "city": "Sioux Falls", "zip_code": "57106", "country": "US", "state": "SD", "display_address": ["2690 S Lorraine Pl", "Sioux Falls, SD 57106"]}, "phone": "+16057402100", "display_phone": "(605) 740-2100", "distance": 4048.6946332481043}, {"id": "bXEpcROL51-b6y-ekP7MCQ", "alias": "subway-sioux-falls-27", "name": "Subway", "image_url": "https://s3-media3.fl.yelpcdn.com/bphoto/WQbYyA9D2bRfsty5fdSUSQ/o.jpg", "is_closed": false, "url": "https://www.yelp.com/biz/subway-sioux-falls-27?adjust_creative=svPiIA0fP5C9T0luNYv_TQ&utm_campaign=yelp_api_v3&utm_medium=api_v3_business_search&utm_source=svPiIA0fP5C9T0luNYv_TQ", "review_count": 1, "categories": [{"alias": "sandwiches", "title": "Sandwiches"}], "rating": 2.0, "coordinates": {"latitude": 43.580250271507786, "longitude": -96.73158851165854}, "transactions": [], "price": "$", "location": {"address1": "2801 Jaycee Ln Pre Security", "address2": "Pre Security", "address3": "Pre Security", "city": "Sioux Falls", "zip_code": "57104", "country": "US", "state": "SD", "display_address": ["2801 Jaycee Ln Pre Security", "Pre Security", "Pre Security", "Sioux Falls, SD 57104"]}, "phone": "+16053350738", "display_phone": "(605) 335-0738", "distance": 5257.9677852770255}, {"id": "hVCVJ_k3TeJGYIVrlPjZvw", "alias": "sky-dine-services-sioux-falls", "name": "Sky Dine Services", "image_url": "https://s3-media1.fl.yelpcdn.com/bphoto/3juBs6clulWK41bUXumAuw/o.jpg", "is_closed": false, "url": "https://www.yelp.com/biz/sky-dine-services-sioux-falls?adjust_creative=svPiIA0fP5C9T0luNYv_TQ&utm_campaign=yelp_api_v3&utm_medium=api_v3_business_search&utm_source=svPiIA0fP5C9T0luNYv_TQ", "review_count": 15, "categories": [{"alias": "tradamerican", "title": "American (Traditional)"}], "rating": 2.5, "coordinates": {"latitude": 43.580188, "longitude": -96.731604}, "transactions": ["delivery"], "location": {"address1": "2801 N Jaycee Ln", "address2": null, "address3": null, "city": "Sioux Falls", "zip_code": "57104", "country": "US", "state": "SD", "display_address": ["2801 N Jaycee Ln", "Sioux Falls, SD 57104"]}, "phone": "+16053350838", "display_phone": "(605) 335-0838", "distance": 5250.975139159959}, {"id": "uH9cAdeR7MvqzXqJquHalQ", "alias": "hy-vee-sioux-falls-9", "name": "Hy-Vee", "image_url": "https://s3-media3.fl.yelpcdn.com/bphoto/aisuUcT8vKmurIBUFH8XmA/o.jpg", "is_closed": false, "url": "https://www.yelp.com/biz/hy-vee-sioux-falls-9?adjust_creative=svPiIA0fP5C9T0luNYv_TQ&utm_campaign=yelp_api_v3&utm_medium=api_v3_business_search&utm_source=svPiIA0fP5C9T0luNYv_TQ", "review_count": 3, "categories": [{"alias": "grocery", "title": "Grocery"}], "rating": 3.5, "coordinates": {"latitude": 43.508373, "longitude": -96.773931}, "transactions": ["delivery", "pickup"], "price": "$$", "location": {"address1": "4101 S Louise Ave", "address2": null, "address3": null, "city": "Sioux Falls", "zip_code": "57103", "country": "US", "state": "SD", "display_address": ["4101 S Louise Ave", "Sioux Falls, SD 57103"]}, "phone": "+16053611382", "display_phone": "(605) 361-1382", "distance": 4110.980045800273}, {"id": "59cONyC0_eLY9Xno-8eFMw", "alias": "subway-sioux-falls-30", "name": "Subway", "image_url": "https://s3-media2.fl.yelpcdn.com/bphoto/p1ub5VVvYQ7gp9QKxrAOMA/o.jpg", "is_closed": false, "url": "https://www.yelp.com/biz/subway-sioux-falls-30?adjust_creative=svPiIA0fP5C9T0luNYv_TQ&utm_campaign=yelp_api_v3&utm_medium=api_v3_business_search&utm_source=svPiIA0fP5C9T0luNYv_TQ", "review_count": 3, "categories": [{"alias": "sandwiches", "title": "Sandwiches"}], "rating": 1.0, "coordinates": {"latitude": 43.476076, "longitude": -96.766587}, "transactions": ["delivery", "pickup"], "price": "$", "location": {"address1": "7600 S Louise Ave", "address2": "Ste 100", "address3": null, "city": "Sioux Falls", "zip_code": "57108", "country": "US", "state": "SD", "display_address": ["7600 S Louise Ave", "Ste 100", "Sioux Falls, SD 57108"]}, "phone": "+16052713284", "display_phone": "(605) 271-3284", "distance": 6799.516141242168}, {"id": "g1qN7x6dqTz5IkqhQ-Z4Nw", "alias": "caseys-harrisburg-3", "name": "Casey's", "image_url": "https://s3-media1.fl.yelpcdn.com/bphoto/Q6VNfk6k_xCK4UGrfrcM7A/o.jpg", "is_closed": false, "url": "https://www.yelp.com/biz/caseys-harrisburg-3?adjust_creative=svPiIA0fP5C9T0luNYv_TQ&utm_campaign=yelp_api_v3&utm_medium=api_v3_business_search&utm_source=svPiIA0fP5C9T0luNYv_TQ", "review_count": 5, "categories": [{"alias": "convenience", "title": "Convenience Stores"}, {"alias": "pizza", "title": "Pizza"}, {"alias": "servicestations", "title": "Gas Stations"}], "rating": 3.0, "coordinates": {"latitude": 43.43102194812601, "longitude": -96.70831008102036}, "transactions": ["delivery"], "price": "$$", "location": {"address1": "401 Willow St", "address2": null, "address3": null, "city": "Harrisburg", "zip_code": "57032", "country": "US", "state": "SD", "display_address": ["401 Willow St", "Harrisburg, SD 57032"]}, "phone": "+16057435404", "display_phone": "(605) 743-5404", "distance": 11565.14818241403}, {"id": "Rz73DyQi5mOtyWXV9_0ROw", "alias": "subway-sioux-falls-29", "name": "Subway", "image_url": "https://s3-media3.fl.yelpcdn.com/bphoto/4mzm2clg7uXeWjFptTCvMA/o.jpg", "is_closed": false, "url": "https://www.yelp.com/biz/subway-sioux-falls-29?adjust_creative=svPiIA0fP5C9T0luNYv_TQ&utm_campaign=yelp_api_v3&utm_medium=api_v3_business_search&utm_source=svPiIA0fP5C9T0luNYv_TQ", "review_count": 3, "categories": [{"alias": "sandwiches", "title": "Sandwiches"}], "rating": 4.0, "coordinates": {"latitude": 43.4900265127619, "longitude": -96.7262791514507}, "transactions": ["delivery", "pickup"], "price": "$", "location": {"address1": "6010 S Minnesota Ave", "address2": null, "address3": null, "city": "Sioux Falls", "zip_code": "57108", "country": "US", "state": "SD", "display_address": ["6010 S Minnesota Ave", "Sioux Falls, SD 57108"]}, "phone": "+16053385003", "display_phone": "(605) 338-5003", "distance": 4850.105333614168}, {"id": "glUAdHw9NnN71It2dtl7XQ", "alias": "subway-sioux-falls-34", "name": "Subway", "image_url": "https://s3-media3.fl.yelpcdn.com/bphoto/gjgrepiXDhpUjjR8c4m7Ag/o.jpg", "is_closed": false, "url": "https://www.yelp.com/biz/subway-sioux-falls-34?adjust_creative=svPiIA0fP5C9T0luNYv_TQ&utm_campaign=yelp_api_v3&utm_medium=api_v3_business_search&utm_source=svPiIA0fP5C9T0luNYv_TQ", "review_count": 3, "categories": [{"alias": "sandwiches", "title": "Sandwiches"}], "rating": 2.5, "coordinates": {"latitude": 43.5442079086448, "longitude": -96.762657}, "transactions": ["delivery", "pickup"], "price": "$", "location": {"address1": "2720 W 12th St", "address2": null, "address3": null, "city": "Sioux Falls", "zip_code": "57104", "country": "US", "state": "SD", "display_address": ["2720 W 12th St", "Sioux Falls, SD 57104"]}, "phone": "+16053350940", "display_phone": "(605) 335-0940", "distance": 2480.502939670773}, {"id": "ZTe-YuKZQz-CFqeG4O_lZw", "alias": "caseys-tea-2", "name": "Casey's", "image_url": "https://s3-media2.fl.yelpcdn.com/bphoto/kHeFG9JsMI_Q5_BpQcsqSA/o.jpg", "is_closed": false, "url": "https://www.yelp.com/biz/caseys-tea-2?adjust_creative=svPiIA0fP5C9T0luNYv_TQ&utm_campaign=yelp_api_v3&utm_medium=api_v3_business_search&utm_source=svPiIA0fP5C9T0luNYv_TQ", "review_count": 2, "categories": [{"alias": "servicestations", "title": "Gas Stations"}, {"alias": "convenience", "title": "Convenience Stores"}, {"alias": "pizza", "title": "Pizza"}], "rating": 1.0, "coordinates": {"latitude": 43.454228000182454, "longitude": -96.82540512617186}, "transactions": ["delivery"], "location": {"address1": "800 E Brian St", "address2": null, "address3": null, "city": "Tea", "zip_code": "57064", "country": "US", "state": "SD", "display_address": ["800 E Brian St", "Tea, SD 57064"]}, "phone": "+16053689152", "display_phone": "(605) 368-9152", "distance": 11352.644781386047}, {"id": "HZmOwlaDt6qIvx8x6NXTUQ", "alias": "caseys-sioux-falls-3", "name": "Casey's", "image_url": "https://s3-media2.fl.yelpcdn.com/bphoto/DiiP9zqVdt8XeJQRaNFEFw/o.jpg", "is_closed": false, "url": "https://www.yelp.com/biz/caseys-sioux-falls-3?adjust_creative=svPiIA0fP5C9T0luNYv_TQ&utm_campaign=yelp_api_v3&utm_medium=api_v3_business_search&utm_source=svPiIA0fP5C9T0luNYv_TQ", "review_count": 2, "categories": [{"alias": "servicestations", "title": "Gas Stations"}, {"alias": "convenience", "title": "Convenience Stores"}, {"alias": "pizza", "title": "Pizza"}], "rating": 3.0, "coordinates": {"latitude": 43.49986580181559, "longitude": -96.77512858867433}, "transactions": ["delivery"], "location": {"address1": "4001 W 57th St", "address2": null, "address3": null, "city": "Sioux Falls", "zip_code": "57108", "country": "US", "state": "SD", "display_address": ["4001 W 57th St", "Sioux Falls, SD 57108"]}, "phone": "+16053613882", "display_phone": "(605) 361-3882", "distance": 4857.204082081604}, {"id": "KzzDqnDRwMm6sAkemKPKjg", "alias": "hy-vee-sioux-falls-3", "name": "Hy-Vee", "image_url": "https://s3-media4.fl.yelpcdn.com/bphoto/5PC9FhlBye_ySlsiaD_ZWw/o.jpg", "is_closed": false, "url": "https://www.yelp.com/biz/hy-vee-sioux-falls-3?adjust_creative=svPiIA0fP5C9T0luNYv_TQ&utm_campaign=yelp_api_v3&utm_medium=api_v3_business_search&utm_source=svPiIA0fP5C9T0luNYv_TQ", "review_count": 5, "categories": [{"alias": "grocery", "title": "Grocery"}], "rating": 3.5, "coordinates": {"latitude": 43.498927703408, "longitude": -96.7093217406388}, "transactions": ["delivery", "pickup"], "price": "$$", "location": {"address1": "1231 E 57th St", "address2": "", "address3": "", "city": "Sioux Falls", "zip_code": "57108", "country": "US", "state": "SD", "display_address": ["1231 E 57th St", "Sioux Falls, SD 57108"]}, "phone": "+16052717171", "display_phone": "(605) 271-7171", "distance": 4363.474028077971}, {"id": "YYnBVtm6xCnZZxoi3dpXxg", "alias": "subway-tea-3", "name": "Subway", "image_url": "https://s3-media2.fl.yelpcdn.com/bphoto/VNwiv7A_oYKvkHZ8VKSIuw/o.jpg", "is_closed": false, "url": "https://www.yelp.com/biz/subway-tea-3?adjust_creative=svPiIA0fP5C9T0luNYv_TQ&utm_campaign=yelp_api_v3&utm_medium=api_v3_business_search&utm_source=svPiIA0fP5C9T0luNYv_TQ", "review_count": 2, "categories": [{"alias": "sandwiches", "title": "Sandwiches"}], "rating": 4.0, "coordinates": {"latitude": 43.4489684131043, "longitude": -96.8267601110277}, "transactions": ["pickup", "delivery"], "price": "$", "location": {"address1": "720 E Figzel Ct", "address2": "", "address3": "", "city": "Tea", "zip_code": "57064", "country": "US", "state": "SD", "display_address": ["720 E Figzel Ct", "Tea, SD 57064"]}, "phone": "+16054987827", "display_phone": "(605) 498-7827", "distance": 11877.394544444958}, {"id": "3ZerhJgiVEcKgsf4weG9BA", "alias": "orrin-steck-sioux-falls", "name": "Orrin Steck", "image_url": "", "is_closed": false, "url": "https://www.yelp.com/biz/orrin-steck-sioux-falls?adjust_creative=svPiIA0fP5C9T0luNYv_TQ&utm_campaign=yelp_api_v3&utm_medium=api_v3_business_search&utm_source=svPiIA0fP5C9T0luNYv_TQ", "review_count": 1, "categories": [{"alias": "pizza", "title": "Pizza"}], "rating": 5.0, "coordinates": {"latitude": 43.54656, "longitude": -96.72888}, "transactions": [], "location": {"address1": "123 Main St", "address2": null, "address3": "", "city": "Sioux Falls", "zip_code": "57104", "country": "US", "state": "SD", "display_address": ["123 Main St", "Sioux Falls, SD 57104"]}, "phone": "", "display_phone": "", "distance": 7950.827135493297}, {"id": "v8yPzrafaw0Q5isPMOlBsQ", "alias": "tinners-public-house-sioux-falls", "name": "Tinner's Public House", "image_url": "https://s3-media2.fl.yelpcdn.com/bphoto/S3TQ3mbR6ZxMV2W-a8KaOQ/o.jpg", "is_closed": false, "url": "https://www.yelp.com/biz/tinners-public-house-sioux-falls?adjust_creative=svPiIA0fP5C9T0luNYv_TQ&utm_campaign=yelp_api_v3&utm_medium=api_v3_business_search&utm_source=svPiIA0fP5C9T0luNYv_TQ", "review_count": 70, "categories": [{"alias": "newamerican", "title": "American (New)"}, {"alias": "sportsbars", "title": "Sports Bars"}, {"alias": "breakfast_brunch", "title": "Breakfast & Brunch"}], "rating": 3.5, "coordinates": {"latitude": 43.4884210543337, "longitude": -96.728852391243}, "transactions": ["delivery"], "price": "$$", "location": {"address1": "449 W 69th St", "address2": "", "address3": "", "city": "Sioux Falls", "zip_code": "57108", "country": "US", "state": "SD", "display_address": ["449 W 69th St", "Sioux Falls, SD 57108"]}, "phone": "+16052712754", "display_phone": "(605) 271-2754", "distance": 4998.230355076164}, {"id": "BXeVmo4ynTj-Qhht4JWMng", "alias": "subway-brandon-26", "name": "Subway", "image_url": "https://s3-media1.fl.yelpcdn.com/bphoto/rfJVptbKELBV9DDe8mtotQ/o.jpg", "is_closed": false, "url": "https://www.yelp.com/biz/subway-brandon-26?adjust_creative=svPiIA0fP5C9T0luNYv_TQ&utm_campaign=yelp_api_v3&utm_medium=api_v3_business_search&utm_source=svPiIA0fP5C9T0luNYv_TQ", "review_count": 6, "categories": [{"alias": "sandwiches", "title": "Sandwiches"}], "rating": 3.0, "coordinates": {"latitude": 43.596155, "longitude": -96.573736}, "transactions": ["pickup", "delivery"], "price": "$", "location": {"address1": "1212 E Holly Blvd", "address2": "", "address3": "", "city": "Brandon", "zip_code": "57005", "country": "US", "state": "SD", "display_address": ["1212 E Holly Blvd", "Brandon, SD 57005"]}, "phone": "+16055827827", "display_phone": "(605) 582-7827", "distance": 14833.146001777346}, {"id": "2m6mbWYUVy0wP3A1M4lfsQ", "alias": "subway-sioux-falls-35", "name": "Subway", "image_url": "https://s3-media2.fl.yelpcdn.com/bphoto/9LjcFU5CBxBWkd9neWVAXA/o.jpg", "is_closed": false, "url": "https://www.yelp.com/biz/subway-sioux-falls-35?adjust_creative=svPiIA0fP5C9T0luNYv_TQ&utm_campaign=yelp_api_v3&utm_medium=api_v3_business_search&utm_source=svPiIA0fP5C9T0luNYv_TQ", "review_count": 3, "categories": [{"alias": "sandwiches", "title": "Sandwiches"}], "rating": 2.5, "coordinates": {"latitude": 43.5280699250911, "longitude": -96.6705088556849}, "transactions": ["pickup", "delivery"], "price": "$", "location": {"address1": "1914 S Sycamore Ave", "address2": "Ste 102", "address3": "", "city": "Sioux Falls", "zip_code": "57110", "country": "US", "state": "SD", "display_address": ["1914 S Sycamore Ave", "Ste 102", "Sioux Falls, SD 57110"]}, "phone": "+16053710862", "display_phone": "(605) 371-0862", "distance": 5308.309939786652}, {"id": "ifnAWz68qtkZQJPl39GlPw", "alias": "subway-sioux-falls-32", "name": "Subway", "image_url": "https://s3-media1.fl.yelpcdn.com/bphoto/ee7GEA1vRzPzdJRCLcFZYw/o.jpg", "is_closed": false, "url": "https://www.yelp.com/biz/subway-sioux-falls-32?adjust_creative=svPiIA0fP5C9T0luNYv_TQ&utm_campaign=yelp_api_v3&utm_medium=api_v3_business_search&utm_source=svPiIA0fP5C9T0luNYv_TQ", "review_count": 2, "categories": [{"alias": "sandwiches", "title": "Sandwiches"}], "rating": 3.5, "coordinates": {"latitude": 43.5143071448809, "longitude": -96.7921236}, "transactions": ["pickup", "delivery"], "price": "$", "location": {"address1": "5401 W 41st St", "address2": "", "address3": "", "city": "Sioux Falls", "zip_code": "57106", "country": "US", "state": "SD", "display_address": ["5401 W 41st St", "Sioux Falls, SD 57106"]}, "phone": "+16053618281", "display_phone": "(605) 361-8281", "distance": 4983.488299418178}, {"id": "HVDluR9xVrQdQTQq7kf96Q", "alias": "subway-sioux-falls-22", "name": "Subway", "image_url": "https://s3-media1.fl.yelpcdn.com/bphoto/hB3pGBwO1GNWDb3-K8fhUw/o.jpg", "is_closed": false, "url": "https://www.yelp.com/biz/subway-sioux-falls-22?adjust_creative=svPiIA0fP5C9T0luNYv_TQ&utm_campaign=yelp_api_v3&utm_medium=api_v3_business_search&utm_source=svPiIA0fP5C9T0luNYv_TQ", "review_count": 1, "categories": [{"alias": "sandwiches", "title": "Sandwiches"}], "rating": 1.0, "coordinates": {"latitude": 43.603303689470586, "longitude": -96.7896860338239}, "transactions": ["delivery"], "location": {"address1": "5200 W 60th St N", "address2": null, "address3": null, "city": "Sioux Falls", "zip_code": "57107", "country": "US", "state": "SD", "display_address": ["5200 W 60th St N", "Sioux Falls, SD 57107"]}, "phone": "+16053325822", "display_phone": "(605) 332-5822", "distance": 8927.499806347849}, {"id": "gfTq0KNjsJZeE8FkJwiE3Q", "alias": "auntie-annes-pretzels-sioux-falls", "name": "Auntie Anne's Pretzels", "image_url": "", "is_closed": false, "url": "https://www.yelp.com/biz/auntie-annes-pretzels-sioux-falls?adjust_creative=svPiIA0fP5C9T0luNYv_TQ&utm_campaign=yelp_api_v3&utm_medium=api_v3_business_search&utm_source=svPiIA0fP5C9T0luNYv_TQ", "review_count": 1, "categories": [{"alias": "pretzels", "title": "Pretzels"}], "rating": 1.0, "coordinates": {"latitude": 43.5114676777969, "longitude": -96.7768709830782}, "transactions": ["pickup", "delivery"], "price": "$", "location": {"address1": "370 W Empire Mall", "address2": "", "address3": "", "city": "Sioux Falls", "zip_code": "57106", "country": "US", "state": "SD", "display_address": ["370 W Empire Mall", "Sioux Falls, SD 57106"]}, "phone": "+16053617477", "display_phone": "(605) 361-7477", "distance": 4078.522235090083}, {"id": "Y0eo36W95TXJkuaOIu4Mkg", "alias": "applebees-grill-bar-sioux-falls-5", "name": "Applebee's Grill + Bar", "image_url": "https://s3-media1.fl.yelpcdn.com/bphoto/PpD_OaWPb3DAGIYjOplXWw/o.jpg", "is_closed": false, "url": "https://www.yelp.com/biz/applebees-grill-bar-sioux-falls-5?adjust_creative=svPiIA0fP5C9T0luNYv_TQ&utm_campaign=yelp_api_v3&utm_medium=api_v3_business_search&utm_source=svPiIA0fP5C9T0luNYv_TQ", "review_count": 36, "categories": [{"alias": "tradamerican", "title": "American (Traditional)"}, {"alias": "sportsbars", "title": "Sports Bars"}, {"alias": "burgers", "title": "Burgers"}], "rating": 2.5, "coordinates": {"latitude": 43.546418, "longitude": -96.685878}, "transactions": ["pickup", "delivery"], "price": "$$", "location": {"address1": "3221 E 10th St", "address2": null, "address3": null, "city": "Sioux Falls", "zip_code": "57103", "country": "US", "state": "SD", "display_address": ["3221 E 10th St", "Sioux Falls, SD 57103"]}, "phone": "+16059774640", "display_phone": "(605) 977-4640", "distance": 4303.430806510883}, {"id": "LZ8ByWEzhhw7GHnL8NFBRA", "alias": "applebees-grill-bar-sioux-falls-4", "name": "Applebee's Grill + Bar", "image_url": "https://s3-media4.fl.yelpcdn.com/bphoto/FhB1AKq0f1TvEDT8IvK_TA/o.jpg", "is_closed": false, "url": "https://www.yelp.com/biz/applebees-grill-bar-sioux-falls-4?adjust_creative=svPiIA0fP5C9T0luNYv_TQ&utm_campaign=yelp_api_v3&utm_medium=api_v3_business_search&utm_source=svPiIA0fP5C9T0luNYv_TQ", "review_count": 28, "categories": [{"alias": "sportsbars", "title": "Sports Bars"}, {"alias": "burgers", "title": "Burgers"}, {"alias": "tradamerican", "title": "American (Traditional)"}], "rating": 3.5, "coordinates": {"latitude": 43.51083413908053, "longitude": -96.77706104927253}, "transactions": ["pickup", "delivery"], "price": "$$", "location": {"address1": "4001 West 41st St", "address2": "Empire Mall, Sears Wing", "address3": "", "city": "Sioux Falls", "zip_code": "57106", "country": "US", "state": "SD", "display_address": ["4001 West 41st St", "Empire Mall, Sears Wing", "Sioux Falls, SD 57106"]}, "phone": "+16053621926", "display_phone": "(605) 362-1926", "distance": 4132.691566103782}, {"id": "nOZZwN80fVHIt7MOQd9syQ", "alias": "hy-vee-fast-and-fresh-sioux-falls-4", "name": "Hy-Vee Fast & Fresh", "image_url": "https://s3-media2.fl.yelpcdn.com/bphoto/m0DMrcje2LZTbvldu6D9sw/o.jpg", "is_closed": false, "url": "https://www.yelp.com/biz/hy-vee-fast-and-fresh-sioux-falls-4?adjust_creative=svPiIA0fP5C9T0luNYv_TQ&utm_campaign=yelp_api_v3&utm_medium=api_v3_business_search&utm_source=svPiIA0fP5C9T0luNYv_TQ", "review_count": 13, "categories": [{"alias": "convenience", "title": "Convenience Stores"}], "rating": 3.0, "coordinates": {"latitude": 43.5082010461809, "longitude": -96.7738967397034}, "transactions": ["delivery"], "price": "$$", "location": {"address1": "4101 S Louise Ave", "address2": "", "address3": "", "city": "Sioux Falls", "zip_code": "57106", "country": "US", "state": "SD", "display_address": ["4101 S Louise Ave", "Sioux Falls, SD 57106"]}, "phone": "+16053610313", "display_phone": "(605) 361-0313", "distance": 4121.732738708526}, {"id": "Cm9aL7CgNhc6ssrQQf8Kvg", "alias": "olive-garden-italian-restaurant-sioux-falls-3", "name": "Olive Garden Italian Restaurant", "image_url": "https://s3-media1.fl.yelpcdn.com/bphoto/Q3iuMj_uDr8GJKU_RMYJYw/o.jpg", "is_closed": false, "url": "https://www.yelp.com/biz/olive-garden-italian-restaurant-sioux-falls-3?adjust_creative=svPiIA0fP5C9T0luNYv_TQ&utm_campaign=yelp_api_v3&utm_medium=api_v3_business_search&utm_source=svPiIA0fP5C9T0luNYv_TQ", "review_count": 63, "categories": [{"alias": "italian", "title": "Italian"}, {"alias": "salad", "title": "Salad"}, {"alias": "soup", "title": "Soup"}], "rating": 2.5, "coordinates": {"latitude": 43.51398869736032, "longitude": -96.76486077350071}, "transactions": [], "price": "$$", "location": {"address1": "3121 W 41st St", "address2": "", "address3": "", "city": "Sioux Falls", "zip_code": "57105", "country": "US", "state": "SD", "display_address": ["3121 W 41st St", "Sioux Falls, SD 57105"]}, "phone": "+16053330290", "display_phone": "(605) 333-0290", "distance": 3149.639172903633}, {"id": "xUi6Yudomq34eGatGz-EHA", "alias": "subway-sioux-falls-24", "name": "Subway", "image_url": "https://s3-media2.fl.yelpcdn.com/bphoto/kknyDGFjS8UpNJP9qqn43Q/o.jpg", "is_closed": false, "url": "https://www.yelp.com/biz/subway-sioux-falls-24?adjust_creative=svPiIA0fP5C9T0luNYv_TQ&utm_campaign=yelp_api_v3&utm_medium=api_v3_business_search&utm_source=svPiIA0fP5C9T0luNYv_TQ", "review_count": 6, "categories": [{"alias": "sandwiches", "title": "Sandwiches"}], "rating": 2.0, "coordinates": {"latitude": 43.5869656784604, "longitude": -96.7786214915898}, "transactions": ["pickup", "delivery"], "price": "$", "location": {"address1": "4101 W Benson Rd", "address2": "", "address3": null, "city": "Sioux Falls", "zip_code": "57107", "country": "US", "state": "SD", "display_address": ["4101 W Benson Rd", "Sioux Falls, SD 57107"]}, "phone": "+16053323980", "display_phone": "(605) 332-3980", "distance": 6907.335430977463}, {"id": "A6Xr8Olh3L86nVLW8Xg1fA", "alias": "buffalo-wild-wings-sioux-falls-5", "name": "Buffalo Wild Wings", "image_url": "https://s3-media2.fl.yelpcdn.com/bphoto/FXdjqio8TopZu_Gb2KzTuQ/o.jpg", "is_closed": false, "url": "https://www.yelp.com/biz/buffalo-wild-wings-sioux-falls-5?adjust_creative=svPiIA0fP5C9T0luNYv_TQ&utm_campaign=yelp_api_v3&utm_medium=api_v3_business_search&utm_source=svPiIA0fP5C9T0luNYv_TQ", "review_count": 35, "categories": [{"alias": "tradamerican", "title": "American (Traditional)"}, {"alias": "chicken_wings", "title": "Chicken Wings"}, {"alias": "sportsbars", "title": "Sports Bars"}], "rating": 1.5, "coordinates": {"latitude": 43.543191, "longitude": -96.653856}, "transactions": ["pickup", "delivery"], "location": {"address1": "620 S Highline Pl", "address2": null, "address3": null, "city": "Sioux Falls", "zip_code": "57110", "country": "US", "state": "SD", "display_address": ["620 S Highline Pl", "Sioux Falls, SD 57110"]}, "phone": "+16052712255", "display_phone": "(605) 271-2255", "distance": 6745.968276895484}, {"id": "oEf5FCc64tax06B2dONTKw", "alias": "red-lobster-sioux-falls", "name": "Red Lobster", "image_url": "https://s3-media3.fl.yelpcdn.com/bphoto/TzvGcWG4fZhqKlN_jkH-XQ/o.jpg", "is_closed": false, "url": "https://www.yelp.com/biz/red-lobster-sioux-falls?adjust_creative=svPiIA0fP5C9T0luNYv_TQ&utm_campaign=yelp_api_v3&utm_medium=api_v3_business_search&utm_source=svPiIA0fP5C9T0luNYv_TQ", "review_count": 43, "categories": [{"alias": "seafood", "title": "Seafood"}, {"alias": "tradamerican", "title": "American (Traditional)"}], "rating": 2.5, "coordinates": {"latitude": 43.513824, "longitude": -96.773821}, "transactions": ["pickup", "delivery"], "price": "$$", "location": {"address1": "3901 W 41st St", "address2": "Empire Mall", "address3": "", "city": "Sioux Falls", "zip_code": "57106", "country": "US", "state": "SD", "display_address": ["3901 W 41st St", "Empire Mall", "Sioux Falls, SD 57106"]}, "phone": "+16053616952", "display_phone": "(605) 361-6952", "distance": 3726.0173232382745}, {"id": "6NJYMQhEyfCGWImjshuWhA", "alias": "popeyes-louisiana-kitchen-sioux-falls", "name": "Popeyes Louisiana Kitchen", "image_url": "https://s3-media4.fl.yelpcdn.com/bphoto/UcCOJCuaNkUlppva1qVuAw/o.jpg", "is_closed": false, "url": "https://www.yelp.com/biz/popeyes-louisiana-kitchen-sioux-falls?adjust_creative=svPiIA0fP5C9T0luNYv_TQ&utm_campaign=yelp_api_v3&utm_medium=api_v3_business_search&utm_source=svPiIA0fP5C9T0luNYv_TQ", "review_count": 28, "categories": [{"alias": "chicken_wings", "title": "Chicken Wings"}, {"alias": "hotdogs", "title": "Fast Food"}], "rating": 2.0, "coordinates": {"latitude": 43.5469339136705, "longitude": -96.6981154232788}, "transactions": ["pickup", "delivery"], "price": "$", "location": {"address1": "2208 E 10th St", "address2": "", "address3": null, "city": "Sioux Falls", "zip_code": "57103", "country": "US", "state": "SD", "display_address": ["2208 E 10th St", "Sioux Falls, SD 57103"]}, "phone": "+16052714102", "display_phone": "(605) 271-4102", "distance": 3420.0825265649046}, {"id": "f6PBBzEb4iAehxO45qS-jg", "alias": "chilis-sioux-falls", "name": "Chili's", "image_url": "https://s3-media1.fl.yelpcdn.com/bphoto/ZgFwWeBnFlJn014xQ9uR0A/o.jpg", "is_closed": false, "url": "https://www.yelp.com/biz/chilis-sioux-falls?adjust_creative=svPiIA0fP5C9T0luNYv_TQ&utm_campaign=yelp_api_v3&utm_medium=api_v3_business_search&utm_source=svPiIA0fP5C9T0luNYv_TQ", "review_count": 41, "categories": [{"alias": "bars", "title": "Bars"}, {"alias": "tex-mex", "title": "Tex-Mex"}, {"alias": "tradamerican", "title": "American (Traditional)"}], "rating": 2.5, "coordinates": {"latitude": 43.5149749, "longitude": -96.7725801}, "transactions": ["pickup", "delivery"], "price": "$$", "location": {"address1": "3720 W 41st St", "address2": "", "address3": "", "city": "Sioux Falls", "zip_code": "57106", "country": "US", "state": "SD", "display_address": ["3720 W 41st St", "Sioux Falls, SD 57106"]}, "phone": "+16053613900", "display_phone": "(605) 361-3900", "distance": 3553.195081102214}]